[
  {
    "FacilityId": "59bfa1f4-161c-4871-875e-00166a29fae4",
    "Name": "HOCKESSIN WALK-IN MEDICAL CARE",
    "AddressLine1": "316 LANTANA DRIVE",
    "AddressLine2": null,
    "City": "HOCKESSIN",
    "State": "DE",
    "PostalCode": "19707",
    "ActivationDate": "2019-12-01T00:00:00",
    "DeactivationDate": null,
    "LastModifiedUTC": "2019-12-18T17:13:10",
    "ModifiedBy": "7754ece9-d347-4be4-8a12-212da9be4e8e",
    "Telephone": "3022344000",
    "County": "NEW CASTLE                              ",
    "Directions": "ON THE EAST SIDE OF LANTANA DR BETWEEN VALLEY RD AND LIMESTONE RD.                                                                                                                                                                                        ",
    "FacilityTypeId": "90c31c62-1990-4fe2-a574-df7ebcfcc92b",
    "Latitude": -75.7084521,
    "Longitude": 39.7736333
  },
  {
    "FacilityId": "de4451ea-8e57-46d6-8055-0027297b419f",
    "Name": "GATEWAY MEDICAL URGENT CARE",
    "AddressLine1": "11131 JOURNAL PARKWAY",
    "AddressLine2": null,
    "City": "KING GEORGE",
    "State": "VA",
    "PostalCode": "22485",
    "ActivationDate": "2019-12-01T00:00:00",
    "DeactivationDate": null,
    "LastModifiedUTC": "2019-12-18T17:13:10",
    "ModifiedBy": "7754ece9-d347-4be4-8a12-212da9be4e8e",
    "Telephone": "5407758009",
    "County": "KING GEORGE                             ",
    "Directions": "FROM THE INTERSECTION OF VA-205 AND KINGS HWY, GO NORTH ON KINGS HWY BETWEEN .3 AND .4 MILES, THEN SW ON JOURNAL PARKWAY FOR .1 MILES, LOCATED ON SOUTHWEST END OF JOURNAL PARKWAY.                                                                       ",
    "FacilityTypeId": "90c31c62-1990-4fe2-a574-df7ebcfcc92b",
    "Latitude": -77.1702238,
    "Longitude": 38.2602311
  },
  {
    "FacilityId": "1599635f-3d2c-4f39-b7a2-002e2a8bdaf5",
    "Name": "ANCHOR HEALTH URGENT CARE",
    "AddressLine1": "801 VANDERBILT BEACH ROAD",
    "AddressLine2": null,
    "City": "NAPLES",
    "State": "FL",
    "PostalCode": "34108",
    "ActivationDate": "2019-12-01T00:00:00",
    "DeactivationDate": null,
    "LastModifiedUTC": "2019-12-18T17:13:10",
    "ModifiedBy": "7754ece9-d347-4be4-8a12-212da9be4e8e",
    "Telephone": "2395969482",
    "County": "COLLIER                                 ",
    "Directions": "LOCATED ON THE NE CORNER OF THE INTERSECTION OF GULF PAVILLION DR AND VANDERBILT BEACH RD.                                                                                                                                                                ",
    "FacilityTypeId": "90c31c62-1990-4fe2-a574-df7ebcfcc92b",
    "Latitude": -81.8048812,
    "Longitude": 26.2523006
  },
  {
    "FacilityId": "691a4973-0a33-495d-8031-0032204e25ec",
    "Name": "PRIMARY HEALTH MEDICAL GROUP - NAMPA",
    "AddressLine1": "700 CALDWELL BOULEVARD",
    "AddressLine2": null,
    "City": "NAMPA",
    "State": "ID",
    "PostalCode": "83651",
    "ActivationDate": "2019-12-01T00:00:00",
    "DeactivationDate": null,
    "LastModifiedUTC": "2019-12-18T17:13:10",
    "ModifiedBy": "7754ece9-d347-4be4-8a12-212da9be4e8e",
    "Telephone": "2084666567",
    "County": "CANYON                                  ",
    "Directions": "ON THE NE SIDE OF CALDWELL BLVD BETWEEN .1 AND .2 MI SE OF N PARKCENTRE PL                                                                                                                                                                                ",
    "FacilityTypeId": "90c31c62-1990-4fe2-a574-df7ebcfcc92b",
    "Latitude": -116.5895135,
    "Longitude": 43.5968394
  },
  {
    "FacilityId": "7e383f81-0c1c-4c41-a7f1-003c2fe3046f",
    "Name": "SARASOTA MEMORIAL WALK-IN MEDICAL CENTER - GULF GA",
    "AddressLine1": "6130 SOUTH TAMIAMI TRAIL",
    "AddressLine2": null,
    "City": "SARASOTA",
    "State": "FL",
    "PostalCode": "34231",
    "ActivationDate": "2019-12-01T00:00:00",
    "DeactivationDate": null,
    "LastModifiedUTC": "2019-12-18T17:13:10",
    "ModifiedBy": "7754ece9-d347-4be4-8a12-212da9be4e8e",
    "Telephone": "9419175678",
    "County": "SARASOTA                                ",
    "Directions": "LOCATED ON THE SW SIDE OF S TAMIAMI TRAIL BETWEEN UPPER BEECHWOOD AVE AND UPPER ELMWOOD AVE.                                                                                                                                                              ",
    "FacilityTypeId": "90c31c62-1990-4fe2-a574-df7ebcfcc92b",
    "Latitude": -82.5270474,
    "Longitude": 27.2648889
  },
  {
    "FacilityId": "477eb0af-1638-460f-aa86-0049d28e719b",
    "Name": "CARE NOW - BEDFORD-EULESS",
    "AddressLine1": "5301 WILLIAM D TATE AVENUE",
    "AddressLine2": null,
    "City": "GRAPEVINE",
    "State": "TX",
    "PostalCode": "76051",
    "ActivationDate": "2019-12-01T00:00:00",
    "DeactivationDate": null,
    "LastModifiedUTC": "2019-12-18T17:13:10",
    "ModifiedBy": "7754ece9-d347-4be4-8a12-212da9be4e8e",
    "Telephone": "8172512101",
    "County": "TARRANT                                 ",
    "Directions": "LOCATED ON THE EAST SIDE OF WILLIAM D TATE AVE BETWEEN CHAMPAGNE BLVD AND W GLADE RD                                                                                                                                                                      ",
    "FacilityTypeId": "90c31c62-1990-4fe2-a574-df7ebcfcc92b",
    "Latitude": -97.0983264,
    "Longitude": 32.8822111
  },
  {
    "FacilityId": "c570240d-6376-4bbb-b34b-005a80d32a4b",
    "Name": "GRAND PRAIRIE URGENT CARE",
    "AddressLine1": "5204 SOUTH STATE HIGHWAY 360",
    "AddressLine2": null,
    "City": "GRAND PRAIRIE",
    "State": "TX",
    "PostalCode": "75052",
    "ActivationDate": "2019-12-01T00:00:00",
    "DeactivationDate": null,
    "LastModifiedUTC": "2019-12-18T17:13:10",
    "ModifiedBy": "7754ece9-d347-4be4-8a12-212da9be4e8e",
    "Telephone": "9727551785",
    "County": "TARRANT                                 ",
    "Directions": "ON THE E SIDE OF S TX-360 ABOUT .2 MILES S OF THE INTERSECTION OF W CAMP WISOM RD AND TX-360.                                                                                                                                                             ",
    "FacilityTypeId": "90c31c62-1990-4fe2-a574-df7ebcfcc92b",
    "Latitude": -97.0612514,
    "Longitude": 32.6457572
  },
  {
    "FacilityId": "ed44bc1f-0276-42f3-adbe-00605226372d",
    "Name": "PROMED MEDICAL CARE CENTER - NORTH",
    "AddressLine1": "2000 WEST ANDERSON LANE",
    "AddressLine2": null,
    "City": "AUSTIN",
    "State": "TX",
    "PostalCode": "78757",
    "ActivationDate": "2019-12-01T00:00:00",
    "DeactivationDate": null,
    "LastModifiedUTC": "2019-12-18T17:13:10",
    "ModifiedBy": "7754ece9-d347-4be4-8a12-212da9be4e8e",
    "Telephone": "5124594367",
    "County": "TRAVIS                                  ",
    "Directions": "LOCATED ON THE NORTHEAST SIDE OF W ANDERSON LN BETWEEN HARDY DR AND MULLEN DR                                                                                                                                                                             ",
    "FacilityTypeId": "90c31c62-1990-4fe2-a574-df7ebcfcc92b",
    "Latitude": -97.7265592,
    "Longitude": 30.3546505
  },
  {
    "FacilityId": "ac73c3eb-e995-404d-873a-0064cca2d2fb",
    "Name": "ALPINE PEDIATRICS",
    "AddressLine1": "1912 WEST 930 NORTH",
    "AddressLine2": null,
    "City": "PLEASANT GROVE",
    "State": "UT",
    "PostalCode": "84062",
    "ActivationDate": "2019-12-01T00:00:00",
    "DeactivationDate": null,
    "LastModifiedUTC": "2019-12-18T17:13:10",
    "ModifiedBy": "7754ece9-d347-4be4-8a12-212da9be4e8e",
    "Telephone": "8014921999",
    "County": "UTAH                                    ",
    "Directions": "NORTH SIDE OF WEST 930 NORTH APPROX .05 MILES EAST OF THE N 2000 W & W 930 N INTERSECTION                                                                                                                                                                 ",
    "FacilityTypeId": "90c31c62-1990-4fe2-a574-df7ebcfcc92b",
    "Latitude": -111.7678528,
    "Longitude": 40.3741981
  },
  {
    "FacilityId": "98f8f8bb-4ec3-4d00-b8bb-006dcb2e8cdf",
    "Name": "BLOOMFIELD MEDICAL CENTER URGENT CARE",
    "AddressLine1": "23900 ORCHARD LAKE ROAD",
    "AddressLine2": "SUITE 150",
    "City": "FARMINGTON HILLS",
    "State": "MI",
    "PostalCode": "48336",
    "ActivationDate": "2019-12-01T00:00:00",
    "DeactivationDate": null,
    "LastModifiedUTC": "2019-12-18T17:13:10",
    "ModifiedBy": "7754ece9-d347-4be4-8a12-212da9be4e8e",
    "Telephone": "2484278000",
    "County": "OAKLAND                                 ",
    "Directions": "LOCATED ON THE SE CORNER OF THE INTERSECTION OF LEELANE ST AND ORCHARD LAKE RD.                                                                                                                                                                           ",
    "FacilityTypeId": "90c31c62-1990-4fe2-a574-df7ebcfcc92b",
    "Latitude": -83.3562005,
    "Longitude": 42.4681517
  },
  {
    "FacilityId": "f2423771-59c8-419d-b56a-0073f0856256",
    "Name": "VALDOSTA FAMILY MEDICINE",
    "AddressLine1": "2412 NORTH OAK STREET",
    "AddressLine2": null,
    "City": "VALDOSTA",
    "State": "GA",
    "PostalCode": "31602",
    "ActivationDate": "2019-12-01T00:00:00",
    "DeactivationDate": null,
    "LastModifiedUTC": "2019-12-18T17:13:10",
    "ModifiedBy": "7754ece9-d347-4be4-8a12-212da9be4e8e",
    "Telephone": "2292441400",
    "County": "LOWNDES                                 ",
    "Directions": "LOCATED ON THE NORTHWEST CORNER OF GORNTO ROAD AND NORTH OAK STREET.                                                                                                                                                                                      ",
    "FacilityTypeId": "90c31c62-1990-4fe2-a574-df7ebcfcc92b",
    "Latitude": -83.2930754,
    "Longitude": 30.8597925
  },
  {
    "FacilityId": "20e534ec-0736-4b3c-ba4a-007ac5f93dc1",
    "Name": "CAROLINAS HEALTHCARE URGENT CARE - MINT HILL",
    "AddressLine1": "10545 BLAIR ROAD",
    "AddressLine2": null,
    "City": "MINT HILL",
    "State": "NC",
    "PostalCode": "28227",
    "ActivationDate": "2019-12-01T00:00:00",
    "DeactivationDate": null,
    "LastModifiedUTC": "2019-12-18T17:13:10",
    "ModifiedBy": "7754ece9-d347-4be4-8a12-212da9be4e8e",
    "Telephone": "7048639600",
    "County": "MECKLENBURG                             ",
    "Directions": "ON THE N SIDE OF BLAIR RD BETWEEN TRUELIGHT CHURCH RD AND CONNELL RD                                                                                                                                                                                      ",
    "FacilityTypeId": "90c31c62-1990-4fe2-a574-df7ebcfcc92b",
    "Latitude": -80.633651,
    "Longitude": 35.212577
  },
  {
    "FacilityId": "6fa5f6b7-61c0-4a17-99cb-007e13d9c9c7",
    "Name": "CONVENIENT CARE COMMUNITY CLINIC",
    "AddressLine1": "1131 MAIN STREET",
    "AddressLine2": null,
    "City": "ALAMOSA",
    "State": "CO",
    "PostalCode": "81101",
    "ActivationDate": "2019-12-01T00:00:00",
    "DeactivationDate": null,
    "LastModifiedUTC": "2019-12-18T17:13:10",
    "ModifiedBy": "7754ece9-d347-4be4-8a12-212da9be4e8e",
    "Telephone": "7195892562",
    "County": "ALAMOSA                                 ",
    "Directions": "LOCATED ON THE NORTHEAST CORNER OF WEST AVENUE AND MAIN STREET.                                                                                                                                                                                           ",
    "FacilityTypeId": "90c31c62-1990-4fe2-a574-df7ebcfcc92b",
    "Latitude": -105.8740673,
    "Longitude": 37.4683857
  },
  {
    "FacilityId": "6f5a55bd-edb5-41e9-9c81-007e8825cc40",
    "Name": "CONCENTRA URGENT CARE - READING",
    "AddressLine1": "4201 POTTSVILLE PIKE",
    "AddressLine2": null,
    "City": "READING",
    "State": "PA",
    "PostalCode": "19605",
    "ActivationDate": "2019-12-01T00:00:00",
    "DeactivationDate": null,
    "LastModifiedUTC": "2019-12-18T17:13:10",
    "ModifiedBy": "7754ece9-d347-4be4-8a12-212da9be4e8e",
    "Telephone": "6109215811",
    "County": "BERKS                                   ",
    "Directions": "ON THE NE SIDE OF POTTSVILLE PIKE LESS THEN .1 S OF WATER ST                                                                                                                                                                                              ",
    "FacilityTypeId": "90c31c62-1990-4fe2-a574-df7ebcfcc92b",
    "Latitude": -75.9351949,
    "Longitude": 40.3997056
  },
  {
    "FacilityId": "9536efad-5486-4e9c-8f62-008387a468d5",
    "Name": "ACCESS FIRST URGENT CARE",
    "AddressLine1": "1525 WEST FLORIDA AVENUE",
    "AddressLine2": "SUITE D",
    "City": "HEMET",
    "State": "CA",
    "PostalCode": "92543",
    "ActivationDate": "2019-12-01T00:00:00",
    "DeactivationDate": null,
    "LastModifiedUTC": "2019-12-18T17:13:10",
    "ModifiedBy": "7754ece9-d347-4be4-8a12-212da9be4e8e",
    "Telephone": "9519296777",
    "County": "RIVERSIDE                               ",
    "Directions": "LOCATED ON THE SOUTH SIDE OF W FLORIDA AVE BETWEEN THE INTERSECTIONS OF S LYON AVE AND S ELK ST                                                                                                                                                           ",
    "FacilityTypeId": "90c31c62-1990-4fe2-a574-df7ebcfcc92b",
    "Latitude": -116.9874917,
    "Longitude": 33.746783
  },
  {
    "FacilityId": "d5db93ed-92fb-4594-a85e-0084587fb261",
    "Name": "APPLECARE",
    "AddressLine1": "111 COLONIAL WAY",
    "AddressLine2": null,
    "City": "JESUP",
    "State": "GA",
    "PostalCode": "31545",
    "ActivationDate": "2019-12-01T00:00:00",
    "DeactivationDate": null,
    "LastModifiedUTC": "2019-12-18T17:13:10",
    "ModifiedBy": "7754ece9-d347-4be4-8a12-212da9be4e8e",
    "Telephone": "9125889110",
    "County": "WAYNE                                   ",
    "Directions": "ON THE SOUTH SIDE OF COLONIAL WAY, PEACHTREE ST AND BRANNEN ST INTERSECTION                                                                                                                                                                               ",
    "FacilityTypeId": "90c31c62-1990-4fe2-a574-df7ebcfcc92b",
    "Latitude": -81.8995724,
    "Longitude": 31.5985736
  },
  {
    "FacilityId": "19b5c32b-f714-4767-ba3f-0093f9f818ab",
    "Name": "NEWBURY PARK FAMILY PRACTICE AND URGENT CARE",
    "AddressLine1": "2080 NEWBURY ROAD",
    "AddressLine2": null,
    "City": "NEWBURY PARK",
    "State": "CA",
    "PostalCode": "91320",
    "ActivationDate": "2019-12-01T00:00:00",
    "DeactivationDate": null,
    "LastModifiedUTC": "2019-12-18T17:13:10",
    "ModifiedBy": "7754ece9-d347-4be4-8a12-212da9be4e8e",
    "Telephone": "8054990308",
    "County": "VENTURA                                 ",
    "Directions": "ON THE S SIDE OF NEWBURY RD BETWEEN .1 AND .2 MI W OF KELLY RD                                                                                                                                                                                            ",
    "FacilityTypeId": "90c31c62-1990-4fe2-a574-df7ebcfcc92b",
    "Latitude": -118.9236492,
    "Longitude": 34.1833803
  },
  {
    "FacilityId": "bc0ea864-235f-4bbd-83a1-00964e755161",
    "Name": "AFTERHOURS MEDICAL CARE",
    "AddressLine1": "1850 BRIGHTON HENRIETTA TOWN LINE ROAD",
    "AddressLine2": null,
    "City": "ROCHESTER",
    "State": "NY",
    "PostalCode": "14623",
    "ActivationDate": "2019-12-01T00:00:00",
    "DeactivationDate": null,
    "LastModifiedUTC": "2019-12-18T17:13:10",
    "ModifiedBy": "7754ece9-d347-4be4-8a12-212da9be4e8e",
    "Telephone": "5853381200",
    "County": "MONROE                                  ",
    "Directions": "ON THE NE CORNER OF TOWNLINE CIR AND BRIGHTON HENRIETTA TOWN LINE RD                                                                                                                                                                                      ",
    "FacilityTypeId": "90c31c62-1990-4fe2-a574-df7ebcfcc92b",
    "Latitude": -77.6277315,
    "Longitude": 43.0947574
  },
  {
    "FacilityId": "4311df64-cc1a-447b-82f4-00973d1ab907",
    "Name": "PREMIER IMMEDIATE CARE",
    "AddressLine1": "2696 LAWRENCEVILLE SUWANEE ROAD",
    "AddressLine2": null,
    "City": "SUWANEE",
    "State": "GA",
    "PostalCode": "30024",
    "ActivationDate": "2019-12-01T00:00:00",
    "DeactivationDate": null,
    "LastModifiedUTC": "2019-12-18T17:13:10",
    "ModifiedBy": "7754ece9-d347-4be4-8a12-212da9be4e8e",
    "Telephone": "6783761300",
    "County": "GWINNETT                                ",
    "Directions": "IN BETWEEN CRESTRIDGE DR AND FALCON CREEK DR. LOCATED ON THE WEST SIDE OF LAWRENCEVILLE SUWANEE RD APROX. .23 MILES NORTH FROM THE INTERSECTION OF FALCON CREEK DR AND LAWRENCEVILLE SUWANNEE RD.                                                         ",
    "FacilityTypeId": "90c31c62-1990-4fe2-a574-df7ebcfcc92b",
    "Latitude": -84.043167,
    "Longitude": 34.0215104
  },
  {
    "FacilityId": "4fa41fe4-b9c7-44b4-be53-00b3d19e770a",
    "Name": "PEDIATRIC TWILIGHT CLINIC",
    "AddressLine1": "740 SOUTH LIMESTONE",
    "AddressLine2": "2ND FLOOR",
    "City": "LEXINGTON",
    "State": "KY",
    "PostalCode": "40536",
    "ActivationDate": "2019-12-01T00:00:00",
    "DeactivationDate": null,
    "LastModifiedUTC": "2019-12-18T17:13:10",
    "ModifiedBy": "7754ece9-d347-4be4-8a12-212da9be4e8e",
    "Telephone": "8592576730",
    "County": "FAYETTE                                 ",
    "Directions": "LOCATED ON THE NORTHEAST SIDE OF SOUTH LIMESTONE ACROSS FROM LEADER AVENUE.                                                                                                                                                                               ",
    "FacilityTypeId": "90c31c62-1990-4fe2-a574-df7ebcfcc92b",
    "Latitude": -84.5081771,
    "Longitude": 38.0335252
  },
  {
    "FacilityId": "38f760a9-aee2-4c9e-8e64-00bf52782ef5",
    "Name": "ELKHART URGENT CARE",
    "AddressLine1": "303 SOUTH NAPPANEE STREET",
    "AddressLine2": null,
    "City": "ELKHART",
    "State": "IN",
    "PostalCode": "46514",
    "ActivationDate": "2019-12-01T00:00:00",
    "DeactivationDate": null,
    "LastModifiedUTC": "2019-12-18T17:13:10",
    "ModifiedBy": "7754ece9-d347-4be4-8a12-212da9be4e8e",
    "Telephone": "5742963326",
    "County": "ELKHART                                 ",
    "Directions": "ON THE SW CORNER OF THE INTERSECTION OF W LEXINGTON AVE AND S NAPPANEE ST                                                                                                                                                                                 ",
    "FacilityTypeId": "90c31c62-1990-4fe2-a574-df7ebcfcc92b",
    "Latitude": -86.0041885,
    "Longitude": 41.6820684
  },
  {
    "FacilityId": "d0286536-ed25-4977-a22c-00e53ba39344",
    "Name": "EMERGICARE MEDICAL CLINICS",
    "AddressLine1": "4083 AUSTIN BLUFFS PARKWAY",
    "AddressLine2": null,
    "City": "COLORADO SPRINGS",
    "State": "CO",
    "PostalCode": "80918",
    "ActivationDate": "2019-12-01T00:00:00",
    "DeactivationDate": null,
    "LastModifiedUTC": "2019-12-18T17:13:10",
    "ModifiedBy": "7754ece9-d347-4be4-8a12-212da9be4e8e",
    "Telephone": "7195940046",
    "County": "EL PASO                                 ",
    "Directions": "LOCATED ON THE SOUTH SIDE OF AUSTIN BLUFFS PARKWAY, 0.02 MILES EAST OF THE INTERSECTION OF AUSTIN BLUFFS PARKWAY AND SIFERD BOULEVARD                                                                                                                     ",
    "FacilityTypeId": "90c31c62-1990-4fe2-a574-df7ebcfcc92b",
    "Latitude": -104.754815,
    "Longitude": 38.8906494
  },
  {
    "FacilityId": "96ec002b-6d22-4c69-b3f0-00eae04d13a0",
    "Name": "PHYSICIANS MEDICAL WALK IN CARE",
    "AddressLine1": "1300 MCARTHUR STREET",
    "AddressLine2": null,
    "City": "MANCHESTER",
    "State": "TN",
    "PostalCode": "37355",
    "ActivationDate": "2019-12-01T00:00:00",
    "DeactivationDate": null,
    "LastModifiedUTC": "2019-12-18T17:13:10",
    "ModifiedBy": "7754ece9-d347-4be4-8a12-212da9be4e8e",
    "Telephone": "9317288153",
    "County": "COFFEE                                  ",
    "Directions": "LOCATED ON THE SOUTHWEST CORNER OF WILLOW DR AND MCARTHUR ST.                                                                                                                                                                                             ",
    "FacilityTypeId": "90c31c62-1990-4fe2-a574-df7ebcfcc92b",
    "Latitude": -86.0889537,
    "Longitude": 35.4629454
  },
  {
    "FacilityId": "50df81a3-0c90-4046-a476-01025916aedd",
    "Name": "EISENHOWER EXPRESS CLINIC - CATHEDRAL CITY",
    "AddressLine1": "67780 EAST PALM CANYON DRIVE",
    "AddressLine2": null,
    "City": "CATHEDRAL CITY",
    "State": "CA",
    "PostalCode": "92234",
    "ActivationDate": "2019-12-01T00:00:00",
    "DeactivationDate": null,
    "LastModifiedUTC": "2019-12-18T17:13:10",
    "ModifiedBy": "7754ece9-d347-4be4-8a12-212da9be4e8e",
    "Telephone": "7603281000",
    "County": "RIVERSIDE                               ",
    "Directions": "LOCATED ON THE NORTHEAST SIDE OF E PALM CANYON DR BETWEEN THE INTERSECTIONS OF EAGLE CANYON WAY AND HACIENDA DR                                                                                                                                           ",
    "FacilityTypeId": "90c31c62-1990-4fe2-a574-df7ebcfcc92b",
    "Latitude": -116.4808027,
    "Longitude": 33.7879388
  },
  {
    "FacilityId": "266a8a9e-299c-47c6-a8fd-013439931e8c",
    "Name": "YOUR DOCS IN - OCEAN CITY CLINIC",
    "AddressLine1": "103 120TH STREET",
    "AddressLine2": null,
    "City": "OCEAN CITY",
    "State": "MD",
    "PostalCode": "21842",
    "ActivationDate": "2019-12-01T00:00:00",
    "DeactivationDate": null,
    "LastModifiedUTC": "2019-12-18T17:13:10",
    "ModifiedBy": "7754ece9-d347-4be4-8a12-212da9be4e8e",
    "Telephone": "4105200582",
    "County": "WORCESTER                               ",
    "Directions": "LOCATED ON THE SOUTH SIDE OF 120TH ST, BETWEEN GEORGIA AVE AND MD-528.                                                                                                                                                                                    ",
    "FacilityTypeId": "90c31c62-1990-4fe2-a574-df7ebcfcc92b",
    "Latitude": -75.0572522,
    "Longitude": 38.4250619
  },
  {
    "FacilityId": "920d3f9d-6dee-435f-87a3-013d27f21760",
    "Name": "CONCENTRA URGENT CARE - MIAMI DORAL",
    "AddressLine1": "7800 NORTHWEST 25TH STREET",
    "AddressLine2": "SUITE 4",
    "City": "MIAMI",
    "State": "FL",
    "PostalCode": "33122",
    "ActivationDate": "2019-12-01T00:00:00",
    "DeactivationDate": null,
    "LastModifiedUTC": "2019-12-18T17:13:10",
    "ModifiedBy": "7754ece9-d347-4be4-8a12-212da9be4e8e",
    "Telephone": "3055932174",
    "County": "MIAMI-DADE                              ",
    "Directions": "LOC ON THE S SIDE OF NW 25TH ST BETWEEN .1 AND .2 MI W OF PALMETTO EXPY                                                                                                                                                                                   ",
    "FacilityTypeId": "90c31c62-1990-4fe2-a574-df7ebcfcc92b",
    "Latitude": -80.3237768,
    "Longitude": 25.7961333
  },
  {
    "FacilityId": "f1414519-8af1-4e74-91cd-0140da202db8",
    "Name": "GUAYNABO MEDICAL MALL",
    "AddressLine1": "AVENIDA LAS CUMBRES FINAL 140",
    "AddressLine2": "SUITE 107",
    "City": "GUAYNABO",
    "State": "PR",
    "PostalCode": "969",
    "ActivationDate": "2019-12-01T00:00:00",
    "DeactivationDate": null,
    "LastModifiedUTC": "2019-12-18T17:13:10",
    "ModifiedBy": "7754ece9-d347-4be4-8a12-212da9be4e8e",
    "Telephone": "7879997080",
    "County": "GUAYNABO                                ",
    "Directions": "LOCATED ON NORTH SIDE OF AVENIDA LAS CUMBRES, .11 MILE WEST OF CALLE JOSE R CARAZO                                                                                                                                                                        ",
    "FacilityTypeId": "90c31c62-1990-4fe2-a574-df7ebcfcc92b",
    "Latitude": -66.1128413,
    "Longitude": 18.3615683
  },
  {
    "FacilityId": "853fab80-f1e2-4b00-9435-015813c3c976",
    "Name": "BELGRADE URGENT CARE",
    "AddressLine1": "403 WEST MAIN STREET",
    "AddressLine2": null,
    "City": "BELGRADE",
    "State": "MT",
    "PostalCode": "59714",
    "ActivationDate": "2019-12-01T00:00:00",
    "DeactivationDate": null,
    "LastModifiedUTC": "2019-12-18T17:13:10",
    "ModifiedBy": "7754ece9-d347-4be4-8a12-212da9be4e8e",
    "Telephone": "4063888708",
    "County": "GALLATIN                                ",
    "Directions": "LOCATED ON THE NORTHEAST SIDE OF W MAIN ST BETWEEN JACKRABBIT LN AND N GROGAN ST                                                                                                                                                                          ",
    "FacilityTypeId": "90c31c62-1990-4fe2-a574-df7ebcfcc92b",
    "Latitude": -111.1823024,
    "Longitude": 45.7792863
  },
  {
    "FacilityId": "24f91579-e3ae-4cef-a2cf-017349a1aa45",
    "Name": "SUNRISE FAMILY MEDICAL",
    "AddressLine1": "7601 EVERGREEN WAY",
    "AddressLine2": "SUITE B6",
    "City": "EVERETT",
    "State": "WA",
    "PostalCode": "98203",
    "ActivationDate": "2019-12-01T00:00:00",
    "DeactivationDate": null,
    "LastModifiedUTC": "2019-12-18T17:13:10",
    "ModifiedBy": "7754ece9-d347-4be4-8a12-212da9be4e8e",
    "Telephone": "4253539191",
    "County": "SNOHOMISH                               ",
    "Directions": "LOCATED ON THE SOUTHEAST SIDE OF EVERGREEN WAY, BETWEEN BRUIN BLVD AND 75TH ST SE.                                                                                                                                                                        ",
    "FacilityTypeId": "90c31c62-1990-4fe2-a574-df7ebcfcc92b",
    "Latitude": -122.2189585,
    "Longitude": 47.9286152
  },
  {
    "FacilityId": "197ac6ef-5686-4151-b1f8-0174c95515a0",
    "Name": "FASTER CARE",
    "AddressLine1": "15 MCCABE DRIVE",
    "AddressLine2": "SUITE 100",
    "City": "RENO",
    "State": "NV",
    "PostalCode": "89511",
    "ActivationDate": "2019-12-01T00:00:00",
    "DeactivationDate": null,
    "LastModifiedUTC": "2019-12-18T17:13:10",
    "ModifiedBy": "7754ece9-d347-4be4-8a12-212da9be4e8e",
    "Telephone": "7758269111",
    "County": "WASHOE                                  ",
    "Directions": "LOCATED ON THE WEST CORNER OF SOUTH VIRGINIA STREET AND MCCABE DRIVE.                                                                                                                                                                                     ",
    "FacilityTypeId": "90c31c62-1990-4fe2-a574-df7ebcfcc92b",
    "Latitude": -119.7625394,
    "Longitude": 39.4271044
  },
  {
    "FacilityId": "1786a284-98c3-4706-afeb-0175caa2cd4d",
    "Name": "BARNES CARE - URGENT CARE",
    "AddressLine1": "1901 TRADE CENTER DRIVE",
    "AddressLine2": null,
    "City": "SAINT PETERS",
    "State": "MO",
    "PostalCode": "63376",
    "ActivationDate": "2019-12-01T00:00:00",
    "DeactivationDate": null,
    "LastModifiedUTC": "2019-12-18T17:13:10",
    "ModifiedBy": "7754ece9-d347-4be4-8a12-212da9be4e8e",
    "Telephone": "6369781008",
    "County": "ST CHARLES                              ",
    "Directions": "SOUTHEAST CORNER OF TRADE CENTER DR AND VETERANS MEMORIAL PKY.                                                                                                                                                                                            ",
    "FacilityTypeId": "90c31c62-1990-4fe2-a574-df7ebcfcc92b",
    "Latitude": -90.6651855,
    "Longitude": 38.8021747
  },
  {
    "FacilityId": "4c610747-951e-4f2f-ac21-017be1fbcc35",
    "Name": "NEXTCARE URGENT CARE - PHOENIX",
    "AddressLine1": "1701 EAST THOMAS ROAD",
    "AddressLine2": null,
    "City": "PHOENIX",
    "State": "AZ",
    "PostalCode": "85016",
    "ActivationDate": "2019-12-01T00:00:00",
    "DeactivationDate": null,
    "LastModifiedUTC": "2019-12-18T17:13:10",
    "ModifiedBy": "7754ece9-d347-4be4-8a12-212da9be4e8e",
    "Telephone": "8008198566",
    "County": "MARICOPA                                ",
    "Directions": "LOCATED ON THE SOUTH SIDE OF E THOMAS RD BETWEEN N 18TH ST AND N 16TH ST                                                                                                                                                                                  ",
    "FacilityTypeId": "90c31c62-1990-4fe2-a574-df7ebcfcc92b",
    "Latitude": -112.0445082,
    "Longitude": 33.4799158
  },
  {
    "FacilityId": "b0d10ba0-0814-436d-a9ac-019f7ff271b2",
    "Name": "CONCENTRA URGENT CARE MEDICAL CENTER - CONYERS",
    "AddressLine1": "1157-B WEST AVENUE",
    "AddressLine2": null,
    "City": "CONYERS",
    "State": "GA",
    "PostalCode": "30012",
    "ActivationDate": "2019-12-01T00:00:00",
    "DeactivationDate": null,
    "LastModifiedUTC": "2019-12-18T17:13:10",
    "ModifiedBy": "7754ece9-d347-4be4-8a12-212da9be4e8e",
    "Telephone": "7707600066",
    "County": "ROCKDALE                                ",
    "Directions": "ON THE NORTHEAST SIDE OF WEST AVE SW BETWEEN DOGWOOD DR SW AND 80                                                                                                                                                                                         ",
    "FacilityTypeId": "90c31c62-1990-4fe2-a574-df7ebcfcc92b",
    "Latitude": -84.0266634,
    "Longitude": 33.6666701
  },
  {
    "FacilityId": "93f595d3-a73b-4920-9be8-01b0be1a541e",
    "Name": "MORTON PLANT MEASE IMMEDIATE CARE CENTER - WALSHIN",
    "AddressLine1": "13670 WALSINGHAM ROAD",
    "AddressLine2": null,
    "City": "LARGO",
    "State": "FL",
    "PostalCode": "33774",
    "ActivationDate": "2019-12-01T00:00:00",
    "DeactivationDate": null,
    "LastModifiedUTC": "2019-12-18T17:13:10",
    "ModifiedBy": "7754ece9-d347-4be4-8a12-212da9be4e8e",
    "Telephone": "7275939848",
    "County": "PINELLAS                                ",
    "Directions": "LOCATED ON THE SOUTHEAST CORNER OF THE INTERSECTION OF 137TH ST N AND WALSINGHAM RD.                                                                                                                                                                      ",
    "FacilityTypeId": "90c31c62-1990-4fe2-a574-df7ebcfcc92b",
    "Latitude": -82.8277333,
    "Longitude": 27.8797015
  },
  {
    "FacilityId": "c859c0b4-8176-4faa-b8c0-01b82b6bc916",
    "Name": "GWINNETT URGENT CARE",
    "AddressLine1": "1300 PEACHTREE INDUSTRIAL BOULEVARD",
    "AddressLine2": "THE PLAZA AT SUWANEE STATION",
    "City": "SUWANEE",
    "State": "GA",
    "PostalCode": "30024",
    "ActivationDate": "2019-12-01T00:00:00",
    "DeactivationDate": null,
    "LastModifiedUTC": "2019-12-18T17:13:10",
    "ModifiedBy": "7754ece9-d347-4be4-8a12-212da9be4e8e",
    "Telephone": "7708315525",
    "County": "GWINNETT                                ",
    "Directions": "LOCATED ON THE EAST SIDE OF PEACHTREE INDUSTRIAL BLVD NW BETWEEN GRAND VISTA APPR NW AND STATION CENTER BLVD NW                                                                                                                                           ",
    "FacilityTypeId": "90c31c62-1990-4fe2-a574-df7ebcfcc92b",
    "Latitude": -84.0951742,
    "Longitude": 34.0417269
  },
  {
    "FacilityId": "8f95ad86-4e80-4733-a82d-01dc4addf4b0",
    "Name": "BUFFALO CLINIC PROFESSIONAL ASSOCIATION",
    "AddressLine1": "1700 STATE HIGHWAY 25 NORTH",
    "AddressLine2": null,
    "City": "BUFFALO",
    "State": "MN",
    "PostalCode": "55313",
    "ActivationDate": "2019-12-01T00:00:00",
    "DeactivationDate": null,
    "LastModifiedUTC": "2019-12-18T17:13:10",
    "ModifiedBy": "7754ece9-d347-4be4-8a12-212da9be4e8e",
    "Telephone": "7636843678",
    "County": "WRIGHT                                  ",
    "Directions": "LOCATED ON THE EAST SIDE OF HIGHWAY 25 NORTH, BETWEEN .1MI AND .2MI NORTH OF CATLIN STREET.                                                                                                                                                               ",
    "FacilityTypeId": "90c31c62-1990-4fe2-a574-df7ebcfcc92b",
    "Latitude": -93.8712499,
    "Longitude": 45.1953397
  },
  {
    "FacilityId": "1117c63f-2adf-495b-a30a-01e101347978",
    "Name": "COMMUNITY URGENT CARE - NORTHSIDE",
    "AddressLine1": "2200 NORTH LIMESTONE STREET",
    "AddressLine2": "SUITE 102",
    "City": "SPRINGFIELD",
    "State": "OH",
    "PostalCode": "45503",
    "ActivationDate": "2019-12-01T00:00:00",
    "DeactivationDate": null,
    "LastModifiedUTC": "2019-12-18T17:13:10",
    "ModifiedBy": "7754ece9-d347-4be4-8a12-212da9be4e8e",
    "Telephone": "9373995303",
    "County": "CLARK                                   ",
    "Directions": "ON THE E SIDE OF N LIMESTONE ST LESS THEN .1 MI S OF TRENTON PL                                                                                                                                                                                           ",
    "FacilityTypeId": "90c31c62-1990-4fe2-a574-df7ebcfcc92b",
    "Latitude": -83.8032546,
    "Longitude": 39.9514337
  },
  {
    "FacilityId": "a18256cf-7a3b-4dd0-b4ed-01e1635b9a5c",
    "Name": "ACCESSIBLE HEALTH CENTER - URGENT CARE",
    "AddressLine1": "4478 DOWLING STREET",
    "AddressLine2": null,
    "City": "MONTAGUE",
    "State": "MI",
    "PostalCode": "49437",
    "ActivationDate": "2019-12-01T00:00:00",
    "DeactivationDate": null,
    "LastModifiedUTC": "2019-12-18T17:13:10",
    "ModifiedBy": "7754ece9-d347-4be4-8a12-212da9be4e8e",
    "Telephone": "2318934600",
    "County": "MUSKEGON                                ",
    "Directions": "LOCATED ON THE NORTHEAST SIDE OF DOWLING STREET, APPROX .1MI SOUTHEAST OF WATER STREET.                                                                                                                                                                   ",
    "FacilityTypeId": "90c31c62-1990-4fe2-a574-df7ebcfcc92b",
    "Latitude": -86.3528916,
    "Longitude": 43.4148776
  },
  {
    "FacilityId": "f2b45ed8-b6ce-4aec-a6e2-01e54b69bb94",
    "Name": "FLORIDA HOSPITAL CENTRA CARE - OVIEDO",
    "AddressLine1": "8010 RED BUG LAKE ROAD",
    "AddressLine2": null,
    "City": "OVIEDO",
    "State": "FL",
    "PostalCode": "32765",
    "ActivationDate": "2019-12-01T00:00:00",
    "DeactivationDate": null,
    "LastModifiedUTC": "2019-12-18T17:13:10",
    "ModifiedBy": "7754ece9-d347-4be4-8a12-212da9be4e8e",
    "Telephone": "4072002512",
    "County": "SEMINOLE                                ",
    "Directions": "ON THE NE CORNER OF RED BUG LAKE RD AND DOVERA DR                                                                                                                                                                                                         ",
    "FacilityTypeId": "90c31c62-1990-4fe2-a574-df7ebcfcc92b",
    "Latitude": -81.2405597,
    "Longitude": 28.6571698
  },
  {
    "FacilityId": "e1a2d397-8636-459b-99a4-01e71b3ed62a",
    "Name": "GUTHRIE MEDICAL GROUP",
    "AddressLine1": "130 CENTER WAY",
    "AddressLine2": null,
    "City": "CORNING",
    "State": "NY",
    "PostalCode": "14830",
    "ActivationDate": "2019-12-01T00:00:00",
    "DeactivationDate": null,
    "LastModifiedUTC": "2019-12-18T17:13:10",
    "ModifiedBy": "7754ece9-d347-4be4-8a12-212da9be4e8e",
    "Telephone": "6079369971",
    "County": "STEUBEN                                 ",
    "Directions": "LOC AT THE NORTHEAST CORNER OF CORNING BLVD AND CENTER WAY.                                                                                                                                                                                               ",
    "FacilityTypeId": "90c31c62-1990-4fe2-a574-df7ebcfcc92b",
    "Latitude": -77.0521509,
    "Longitude": 42.1489168
  },
  {
    "FacilityId": "4efe031a-b9cb-4deb-aa15-01ee8539f4f4",
    "Name": "FIRST CARE",
    "AddressLine1": "2081 WEST UNITED STATES HIGHWAY 70",
    "AddressLine2": null,
    "City": "THATCHER",
    "State": "AZ",
    "PostalCode": "85552",
    "ActivationDate": "2019-12-01T00:00:00",
    "DeactivationDate": null,
    "LastModifiedUTC": "2019-12-18T17:13:10",
    "ModifiedBy": "7754ece9-d347-4be4-8a12-212da9be4e8e",
    "Telephone": "9283480000",
    "County": "GRAHAM                                  ",
    "Directions": "LESS THAN .1 MILE NORTHWEST OF SOUTH 20TH AVENUE ON THE SOUTHWEST SIDE OF WEST THATCHER BOULEVARD                                                                                                                                                         ",
    "FacilityTypeId": "90c31c62-1990-4fe2-a574-df7ebcfcc92b",
    "Latitude": -109.7338367,
    "Longitude": 32.8353341
  },
  {
    "FacilityId": "52826fba-d41e-4b52-a7b5-0204579f4b45",
    "Name": "DAIRY ASHFORD MEDICAL CLINIC URGENT CARE",
    "AddressLine1": "12303 WESTHEIMER ROAD",
    "AddressLine2": "SUITE B",
    "City": "HOUSTON",
    "State": "TX",
    "PostalCode": "77077",
    "ActivationDate": "2019-12-01T00:00:00",
    "DeactivationDate": null,
    "LastModifiedUTC": "2019-12-18T17:13:10",
    "ModifiedBy": "7754ece9-d347-4be4-8a12-212da9be4e8e",
    "Telephone": "2815565825",
    "County": "HARRIS                                  ",
    "Directions": "LOCATED ON THE SOUTHSWEST CORNER OF WESTHEIMER RD AND SHADOWBRIAR DR                                                                                                                                                                                      ",
    "FacilityTypeId": "90c31c62-1990-4fe2-a574-df7ebcfcc92b",
    "Latitude": -95.5986472,
    "Longitude": 29.73577
  },
  {
    "FacilityId": "b71846e1-4a4f-47e5-8da0-02184a92068e",
    "Name": "DUNKIRK MEDICAL CENTER",
    "AddressLine1": "10845 TOWN CENTER BOULEVARD",
    "AddressLine2": null,
    "City": "DUNKIRK",
    "State": "MD",
    "PostalCode": "20754",
    "ActivationDate": "2019-12-01T00:00:00",
    "DeactivationDate": null,
    "LastModifiedUTC": "2019-12-18T17:13:10",
    "ModifiedBy": "7754ece9-d347-4be4-8a12-212da9be4e8e",
    "Telephone": "4102573938",
    "County": "CALVERT                                 ",
    "Directions": "N SIDE OF TOWN CTR BLVD ACROSS FROM PLAZA DRIVE                                                                                                                                                                                                           ",
    "FacilityTypeId": "90c31c62-1990-4fe2-a574-df7ebcfcc92b",
    "Latitude": -76.6576068,
    "Longitude": 38.7259215
  },
  {
    "FacilityId": "16d192e8-073f-4d1e-a946-021d145078ca",
    "Name": "FIRST MED IMMEDIATE MEDICAL SERVICES OF QUEENS",
    "AddressLine1": "210-21 NORTHERN BOULEVARD",
    "AddressLine2": null,
    "City": "BAYSIDE",
    "State": "NY",
    "PostalCode": "11361",
    "ActivationDate": "2019-12-01T00:00:00",
    "DeactivationDate": null,
    "LastModifiedUTC": "2019-12-18T17:13:10",
    "ModifiedBy": "7754ece9-d347-4be4-8a12-212da9be4e8e",
    "Telephone": "7182248855",
    "County": "QUEENS                                  ",
    "Directions": "ON THE N SIDE OF NORTHERN BOULEVARD, BETWEEN 210TH ST AND 211TH ST.                                                                                                                                                                                       ",
    "FacilityTypeId": "90c31c62-1990-4fe2-a574-df7ebcfcc92b",
    "Latitude": -73.7726265,
    "Longitude": 40.7597212
  },
  {
    "FacilityId": "b796428d-d33c-4a01-b926-0220f5623e1f",
    "Name": "RX URGENT CARE - NORTH RALEIGH",
    "AddressLine1": "10880 DURANT ROAD",
    "AddressLine2": "SUITE 110",
    "City": "RALEIGH",
    "State": "NC",
    "PostalCode": "27614",
    "ActivationDate": "2019-12-01T00:00:00",
    "DeactivationDate": null,
    "LastModifiedUTC": "2019-12-18T17:13:10",
    "ModifiedBy": "7754ece9-d347-4be4-8a12-212da9be4e8e",
    "Telephone": "9197192260",
    "County": "WAKE                                    ",
    "Directions": "LOCATED ON THE NORTH SIDE OF DURANT RD, .3 MILES EAST OF THE INTERSECTION OF DURANT RD AND FALLS OF NEUSE RD.                                                                                                                                             ",
    "FacilityTypeId": "90c31c62-1990-4fe2-a574-df7ebcfcc92b",
    "Latitude": -78.5948612,
    "Longitude": 35.9075209
  },
  {
    "FacilityId": "d4314f38-04d5-4dd5-8bdd-022289b3d837",
    "Name": "WILLIS KNIGHTON QUICK CARE",
    "AddressLine1": "1666 EAST BERT KOUNS INDUSTRIAL LOOP",
    "AddressLine2": null,
    "City": "SHREVEPORT",
    "State": "LA",
    "PostalCode": "71105",
    "ActivationDate": "2019-12-01T00:00:00",
    "DeactivationDate": null,
    "LastModifiedUTC": "2019-12-18T17:13:10",
    "ModifiedBy": "7754ece9-d347-4be4-8a12-212da9be4e8e",
    "Telephone": "3182125000",
    "County": "CADDO                                   ",
    "Directions": "ON THE NORTH SIDE OF EAST BERT KOUNS INDUSTRIAL LOOP EXPRESSWAY, LESS THAN .1 MILES WEST OF LA-1                                                                                                                                                          ",
    "FacilityTypeId": "90c31c62-1990-4fe2-a574-df7ebcfcc92b",
    "Latitude": -93.7131663,
    "Longitude": 32.4317985
  },
  {
    "FacilityId": "13143634-3838-441c-a0cc-025950c87003",
    "Name": "CONCENTRA URGENT CARE - HARRISBURG WEST",
    "AddressLine1": "4910 RITTER ROAD",
    "AddressLine2": null,
    "City": "MECHANICSBURG",
    "State": "PA",
    "PostalCode": "17055",
    "ActivationDate": "2019-12-01T00:00:00",
    "DeactivationDate": null,
    "LastModifiedUTC": "2019-12-18T17:13:10",
    "ModifiedBy": "7754ece9-d347-4be4-8a12-212da9be4e8e",
    "Telephone": "7177951819",
    "County": "CUMBERLAND                              ",
    "Directions": "LOC ON THE NORTHEAST SIDE OF RITTER RD, LESS THAN .1 MILES NORTHWEST OF LOUISE DR.                                                                                                                                                                        ",
    "FacilityTypeId": "90c31c62-1990-4fe2-a574-df7ebcfcc92b",
    "Latitude": -76.9569441,
    "Longitude": 40.2053116
  },
  {
    "FacilityId": "99a84744-e37e-45fe-87fe-0260dff9f277",
    "Name": "BRUNSWICK IMMEDIATE CARE CENTER",
    "AddressLine1": "3724 CENTER ROAD",
    "AddressLine2": null,
    "City": "BRUNSWICK",
    "State": "OH",
    "PostalCode": "44212",
    "ActivationDate": "2019-12-01T00:00:00",
    "DeactivationDate": null,
    "LastModifiedUTC": "2019-12-18T17:13:10",
    "ModifiedBy": "7754ece9-d347-4be4-8a12-212da9be4e8e",
    "Telephone": "3302202504",
    "County": "MEDINA                                  ",
    "Directions": "LOCATED ON THE SOUTH SIDE OF CENTER RD BETWEEN WARREN DR AND COLE RD                                                                                                                                                                                      ",
    "FacilityTypeId": "90c31c62-1990-4fe2-a574-df7ebcfcc92b",
    "Latitude": -81.8176495,
    "Longitude": 41.2365681
  },
  {
    "FacilityId": "228f0187-2041-4251-9845-0269e6b638cb",
    "Name": "MEDCHECK - ANDERSON",
    "AddressLine1": "1030 SOUTH SCATTERFIELD ROAD",
    "AddressLine2": null,
    "City": "ANDERSON",
    "State": "IN",
    "PostalCode": "46012",
    "ActivationDate": "2019-12-01T00:00:00",
    "DeactivationDate": null,
    "LastModifiedUTC": "2019-12-18T17:13:10",
    "ModifiedBy": "7754ece9-d347-4be4-8a12-212da9be4e8e",
    "Telephone": "7656445025",
    "County": "MADISON                                 ",
    "Directions": "LOCATED ON THE EAST SIDE OF S SCATTERFIELD RD BETWEEN E 10TH ST AND HILLCREST DR                                                                                                                                                                          ",
    "FacilityTypeId": "90c31c62-1990-4fe2-a574-df7ebcfcc92b",
    "Latitude": -85.6522764,
    "Longitude": 40.1052217
  },
  {
    "FacilityId": "8257b304-19e2-4462-96a3-028058323858",
    "Name": "COMMUNITY MEMORIAL HEALTH SYSTEMS CENTER FOR FAMIL",
    "AddressLine1": "852 VENTURA STREET",
    "AddressLine2": null,
    "City": "FILLMORE",
    "State": "CA",
    "PostalCode": "93015",
    "ActivationDate": "2019-12-01T00:00:00",
    "DeactivationDate": null,
    "LastModifiedUTC": "2019-12-18T17:13:10",
    "ModifiedBy": "7754ece9-d347-4be4-8a12-212da9be4e8e",
    "Telephone": "8055242672",
    "County": "VENTURA                                 ",
    "Directions": "LOCATED ON THE SOUTHEAST CORNER OF B ST AND W VENTURA ST                                                                                                                                                                                                  ",
    "FacilityTypeId": "90c31c62-1990-4fe2-a574-df7ebcfcc92b",
    "Latitude": -118.9220016,
    "Longitude": 34.3951825
  },
  {
    "FacilityId": "69d3cd89-cb32-4c02-b939-0282c0fe1b8c",
    "Name": "NORTHSIDE IMMEDIATE CARE CENTER",
    "AddressLine1": "420 WHITEHALL ROAD",
    "AddressLine2": null,
    "City": "MUSKEGON",
    "State": "MI",
    "PostalCode": "49445",
    "ActivationDate": "2019-12-01T00:00:00",
    "DeactivationDate": null,
    "LastModifiedUTC": "2019-12-18T17:13:10",
    "ModifiedBy": "7754ece9-d347-4be4-8a12-212da9be4e8e",
    "Telephone": "2317444743",
    "County": "MUSKEGON                                ",
    "Directions": "LOCATED ON THE NORTHEAST SIDE OF WHITEHALL RD, LESS THAN .1 MILE SOUTHEAST OF THE INTERSECTION OF RUDDIMAN DR AND WHITEHALL RD.                                                                                                                           ",
    "FacilityTypeId": "90c31c62-1990-4fe2-a574-df7ebcfcc92b",
    "Latitude": -86.2517505,
    "Longitude": 43.2680932
  },
  {
    "FacilityId": "957f6448-3126-4766-aa44-028723256fe7",
    "Name": "HEALTHPARTNERS RIVERWAY CLINICS - ANDOVER URGENT C",
    "AddressLine1": "15245 BLUEBIRD STREET NORTHWEST",
    "AddressLine2": null,
    "City": "ANDOVER",
    "State": "MN",
    "PostalCode": "55304",
    "ActivationDate": "2019-12-01T00:00:00",
    "DeactivationDate": null,
    "LastModifiedUTC": "2019-12-18T17:13:10",
    "ModifiedBy": "7754ece9-d347-4be4-8a12-212da9be4e8e",
    "Telephone": "7637126666",
    "County": "ANOKA                                   ",
    "Directions": "LOCATED AT THE NORTHEAST CORNER OF HANSON BLVD NW AND BLUEBIRD ST NW.                                                                                                                                                                                     ",
    "FacilityTypeId": "90c31c62-1990-4fe2-a574-df7ebcfcc92b",
    "Latitude": -93.3053761,
    "Longitude": 45.2477992
  },
  {
    "FacilityId": "7780d4f7-bd52-4d7a-8e04-028a0e2ad3fe",
    "Name": "EAST BROAD ADULT URGENT CARE",
    "AddressLine1": "6435 EAST BROAD STREET",
    "AddressLine2": null,
    "City": "COLUMBUS",
    "State": "OH",
    "PostalCode": "43213",
    "ActivationDate": "2019-12-01T00:00:00",
    "DeactivationDate": null,
    "LastModifiedUTC": "2019-12-18T17:13:10",
    "ModifiedBy": "7754ece9-d347-4be4-8a12-212da9be4e8e",
    "Telephone": "6143558150",
    "County": "FRANKLIN                                ",
    "Directions": "LOCATED ON THE SOUTH SIDE OF E BROAD ST, .3 MILES EAST OF THE INTERSECTION OF E BROAD ST AND MCNAUGHTEN RD.                                                                                                                                               ",
    "FacilityTypeId": "90c31c62-1990-4fe2-a574-df7ebcfcc92b",
    "Latitude": -82.830845299999993,
    "Longitude": 39.9802285
  },
  {
    "FacilityId": "c3f58175-7818-4389-be8f-028fdfbf9a46",
    "Name": "PATIENTS FIRST MEDICAL CENTER",
    "AddressLine1": "2907 KERRY FOREST PARKWAY",
    "AddressLine2": null,
    "City": "TALLAHASSEE",
    "State": "FL",
    "PostalCode": "32309",
    "ActivationDate": "2019-12-01T00:00:00",
    "DeactivationDate": null,
    "LastModifiedUTC": "2019-12-18T17:13:10",
    "ModifiedBy": "7754ece9-d347-4be4-8a12-212da9be4e8e",
    "Telephone": "8506683380",
    "County": "LEON                                    ",
    "Directions": ".10 MILES SOUTHEAST OF THOMASVILLE ROAD ON THE SOUTH SIDE OF KERRY FOREST PARKWAY                                                                                                                                                                         ",
    "FacilityTypeId": "90c31c62-1990-4fe2-a574-df7ebcfcc92b",
    "Latitude": -84.2267992,
    "Longitude": 30.5411732
  },
  {
    "FacilityId": "de9d3b73-c8d9-4ae0-b70d-02a4b610bd48",
    "Name": "GORDON URGENT CARE - CALHOUN",
    "AddressLine1": "251 STATE HIGHWAY 53 SOUTHEAST",
    "AddressLine2": null,
    "City": "CALHOUN",
    "State": "GA",
    "PostalCode": "30701",
    "ActivationDate": "2019-12-01T00:00:00",
    "DeactivationDate": null,
    "LastModifiedUTC": "2019-12-18T17:13:10",
    "ModifiedBy": "7754ece9-d347-4be4-8a12-212da9be4e8e",
    "Telephone": "7066028200",
    "County": "GORDON                                  ",
    "Directions": "SW SIDE OF GA-53 SE BETWEEN E BELMONT DR AND KENMORLAND CIR                                                                                                                                                                                               ",
    "FacilityTypeId": "90c31c62-1990-4fe2-a574-df7ebcfcc92b",
    "Latitude": -84.9332119,
    "Longitude": 34.4769476
  },
  {
    "FacilityId": "65d3f3a1-9526-450b-9902-02a7419e9e53",
    "Name": "EAST VALLEY URGENT CARE",
    "AddressLine1": "3200 SOUTH GILBERT ROAD",
    "AddressLine2": null,
    "City": "CHANDLER",
    "State": "AZ",
    "PostalCode": "85286",
    "ActivationDate": "2019-12-01T00:00:00",
    "DeactivationDate": null,
    "LastModifiedUTC": "2019-12-18T17:13:10",
    "ModifiedBy": "7754ece9-d347-4be4-8a12-212da9be4e8e",
    "Telephone": "4804716404",
    "County": "MARICOPA                                ",
    "Directions": "W OF S GILBERT RD, BETWEEN E QUEEN CREEK RD AND E LOCUST DR.                                                                                                                                                                                              ",
    "FacilityTypeId": "90c31c62-1990-4fe2-a574-df7ebcfcc92b",
    "Latitude": -111.7898644,
    "Longitude": 33.2575403
  },
  {
    "FacilityId": "44d3577e-de2b-462e-a271-02b288f3b5f9",
    "Name": "MINDEN URGENT CARE CENTER",
    "AddressLine1": "925 IRONWOOD DRIVE",
    "AddressLine2": "SUITE 1104",
    "City": "MINDEN",
    "State": "NV",
    "PostalCode": "89423",
    "ActivationDate": "2019-12-01T00:00:00",
    "DeactivationDate": null,
    "LastModifiedUTC": "2019-12-18T17:13:10",
    "ModifiedBy": "7754ece9-d347-4be4-8a12-212da9be4e8e",
    "Telephone": "7757828181",
    "County": "DOUGLAS                                 ",
    "Directions": "LOCATED ON THE WEST SIDE OF IRONWOOD DR BETWEEN US-395 AND LUCERNE ST                                                                                                                                                                                     ",
    "FacilityTypeId": "90c31c62-1990-4fe2-a574-df7ebcfcc92b",
    "Latitude": -119.7782663,
    "Longitude": 38.9626523
  },
  {
    "FacilityId": "f72f1d5d-3628-4a16-b31f-02c5837b8394",
    "Name": "PHYSICIANS IMMEDIATE MED",
    "AddressLine1": "10905 HAYNES BRIDGE ROAD",
    "AddressLine2": null,
    "City": "ALPHARETTA",
    "State": "GA",
    "PostalCode": "30022",
    "ActivationDate": "2019-12-01T00:00:00",
    "DeactivationDate": null,
    "LastModifiedUTC": "2019-12-18T17:13:10",
    "ModifiedBy": "7754ece9-d347-4be4-8a12-212da9be4e8e",
    "Telephone": "7705053000",
    "County": "FULTON                                  ",
    "Directions": "LOCATED ON THE NORTHEAST CORNER OF THE INTERSECTION OF HAYNES BRIDGE RD AND NORTH POINT DR.                                                                                                                                                               ",
    "FacilityTypeId": "90c31c62-1990-4fe2-a574-df7ebcfcc92b",
    "Latitude": -84.2851625,
    "Longitude": 34.0511464
  },
  {
    "FacilityId": "87501b72-6482-45e2-9354-02c68b2f555f",
    "Name": "FAMILY HEALTH CARE NETWORK",
    "AddressLine1": "1107 WEST POPLAR AVENUE",
    "AddressLine2": null,
    "City": "PORTERVILLE",
    "State": "CA",
    "PostalCode": "93257",
    "ActivationDate": "2019-12-01T00:00:00",
    "DeactivationDate": null,
    "LastModifiedUTC": "2019-12-18T17:13:10",
    "ModifiedBy": "7754ece9-d347-4be4-8a12-212da9be4e8e",
    "Telephone": "5597817242",
    "County": "TULARE                                  ",
    "Directions": "LOCATED ON THE SOUTH SIDE OF W POPLAR AVE .1 MILES EAST OF THE INTERSECTION OF S PROSPECT ST AND W POPLAR AVE.                                                                                                                                            ",
    "FacilityTypeId": "90c31c62-1990-4fe2-a574-df7ebcfcc92b",
    "Latitude": -119.0422811,
    "Longitude": 36.0509836
  },
  {
    "FacilityId": "1282b1a9-e020-4c23-baed-02d5e54bf434",
    "Name": "EMERGENCY MEDICAL CENTER OF FLINT",
    "AddressLine1": "2284 SOUTH BALLENGER HIGHWAY",
    "AddressLine2": null,
    "City": "FLINT",
    "State": "MI",
    "PostalCode": "48503",
    "ActivationDate": "2019-12-01T00:00:00",
    "DeactivationDate": null,
    "LastModifiedUTC": "2019-12-18T17:13:10",
    "ModifiedBy": "7754ece9-d347-4be4-8a12-212da9be4e8e",
    "Telephone": "8102326101",
    "County": "GENESEE                                 ",
    "Directions": "WEST SIDE OF S BALLENGER HWY BETWEEN CHICAGO BLVD AND BRANDON ST.                                                                                                                                                                                         ",
    "FacilityTypeId": "90c31c62-1990-4fe2-a574-df7ebcfcc92b",
    "Latitude": -83.7346893,
    "Longitude": 42.9941034
  },
  {
    "FacilityId": "843a5f3d-3569-4210-9473-02e0d566037c",
    "Name": "NOW CARE",
    "AddressLine1": "2901 BROOKS STREET",
    "AddressLine2": null,
    "City": "MISSOULA",
    "State": "MT",
    "PostalCode": "59801",
    "ActivationDate": "2019-12-01T00:00:00",
    "DeactivationDate": null,
    "LastModifiedUTC": "2019-12-18T17:13:10",
    "ModifiedBy": "7754ece9-d347-4be4-8a12-212da9be4e8e",
    "Telephone": "4067210918",
    "County": "MISSOULA                                ",
    "Directions": "WEST SIDE OF S GRANT ST, 0.15 MILES NORTH ON S GRANT ST FROM THE INTERESCTION AT BROOKS ST AND GRANT ST.                                                                                                                                                  ",
    "FacilityTypeId": "90c31c62-1990-4fe2-a574-df7ebcfcc92b",
    "Latitude": -114.0287221,
    "Longitude": 46.8451336
  },
  {
    "FacilityId": "e8f278eb-73ba-403d-aa44-02e1d5c3918c",
    "Name": "GET WELL CLINICS",
    "AddressLine1": "2705 OLD FORT PARKWAY",
    "AddressLine2": "SUITE G",
    "City": "MURFREESBORO",
    "State": "TN",
    "PostalCode": "37128",
    "ActivationDate": "2019-12-01T00:00:00",
    "DeactivationDate": null,
    "LastModifiedUTC": "2019-12-18T17:13:10",
    "ModifiedBy": "7754ece9-d347-4be4-8a12-212da9be4e8e",
    "Telephone": "6158961022",
    "County": "RUTHERFORD                              ",
    "Directions": "ON THE S SIDE OF OLD FORT PKY BETWEEN ST ANDREWS DR AND GRESHAM LN                                                                                                                                                                                        ",
    "FacilityTypeId": "90c31c62-1990-4fe2-a574-df7ebcfcc92b",
    "Latitude": -86.4450692,
    "Longitude": 35.8448861
  },
  {
    "FacilityId": "9c0f0942-f205-45c5-bff3-02e671e8acc9",
    "Name": "URGENT CARE MEDICAL AND DIAGNOSTIC",
    "AddressLine1": "500 LONG HOLLOW PIKE",
    "AddressLine2": "SUITE A",
    "City": "GOODLETTSVILLE",
    "State": "TN",
    "PostalCode": "37072",
    "ActivationDate": "2019-12-01T00:00:00",
    "DeactivationDate": null,
    "LastModifiedUTC": "2019-12-18T17:13:10",
    "ModifiedBy": "7754ece9-d347-4be4-8a12-212da9be4e8e",
    "Telephone": "6158511230",
    "County": "SUMNER                                  ",
    "Directions": "ON THE E CORNER OF THE INTERSECTION OF LONG HOLLOW PIKE AND ELLEN DR                                                                                                                                                                                      ",
    "FacilityTypeId": "90c31c62-1990-4fe2-a574-df7ebcfcc92b",
    "Latitude": -86.6963845,
    "Longitude": 36.3303951
  },
  {
    "FacilityId": "3b3344f6-df39-4a29-9c24-02eb3ef0dc15",
    "Name": "RITECARE MEDICAL CENTER",
    "AddressLine1": "16904 WARREN AVENUE EAST",
    "AddressLine2": null,
    "City": "DETROIT",
    "State": "MI",
    "PostalCode": "48228",
    "ActivationDate": "2019-12-01T00:00:00",
    "DeactivationDate": null,
    "LastModifiedUTC": "2019-12-18T17:13:10",
    "ModifiedBy": "7754ece9-d347-4be4-8a12-212da9be4e8e",
    "Telephone": "3135816701",
    "County": "WAYNE                                   ",
    "Directions": "NW CORNER OF WARREN AVE W AND MEMORIAL ST.                                                                                                                                                                                                                ",
    "FacilityTypeId": "90c31c62-1990-4fe2-a574-df7ebcfcc92b",
    "Latitude": -83.2107054,
    "Longitude": 42.3436717
  },
  {
    "FacilityId": "9c3d35c4-030d-4b0b-a8c4-0312e9242a7a",
    "Name": "EDISON MEDICAL CENTER - URGENT CARE",
    "AddressLine1": "19519 WEST HARTFORD STREET",
    "AddressLine2": null,
    "City": "EDISON",
    "State": "GA",
    "PostalCode": "39846",
    "ActivationDate": "2019-12-01T00:00:00",
    "DeactivationDate": null,
    "LastModifiedUTC": "2019-12-18T17:13:10",
    "ModifiedBy": "7754ece9-d347-4be4-8a12-212da9be4e8e",
    "Telephone": "2298352238",
    "County": "CALHOUN                                 ",
    "Directions": "LOCATED ON THE S SIDE OF W HARTFORD ST 0.03 MILES E OF MARTIN LUTHER KING AVE.                                                                                                                                                                            ",
    "FacilityTypeId": "90c31c62-1990-4fe2-a574-df7ebcfcc92b",
    "Latitude": -84.7395057,
    "Longitude": 31.5579377
  },
  {
    "FacilityId": "ac69d09a-c00a-4791-a70f-0328870e1596",
    "Name": "FAMILY MEDICAL CLINIC OF CRYSTAL SPRINGS",
    "AddressLine1": "104 WEST RAILROAD AVENUE",
    "AddressLine2": null,
    "City": "CRYSTAL SPRINGS",
    "State": "MS",
    "PostalCode": "39059",
    "ActivationDate": "2019-12-01T00:00:00",
    "DeactivationDate": null,
    "LastModifiedUTC": "2019-12-18T17:13:10",
    "ModifiedBy": "7754ece9-d347-4be4-8a12-212da9be4e8e",
    "Telephone": "6018923063",
    "County": "COPIAH                                  ",
    "Directions": "ON THE NORTHWEST SIDE OF RAILROAD AVENUE SOUTH BETWEEN WEST MARION AVENUE AND WEST GEORGETOWN STREET                                                                                                                                                      ",
    "FacilityTypeId": "90c31c62-1990-4fe2-a574-df7ebcfcc92b",
    "Latitude": -90.3590561,
    "Longitude": 31.9874531
  },
  {
    "FacilityId": "e5007caa-4a84-4143-be11-032d2b0d319f",
    "Name": "WELLSTAR URGENT CARE - KENNESAW",
    "AddressLine1": "3805 CHEROKEE STREET NORTHWEST",
    "AddressLine2": null,
    "City": "KENNESAW",
    "State": "GA",
    "PostalCode": "30144",
    "ActivationDate": "2019-12-01T00:00:00",
    "DeactivationDate": null,
    "LastModifiedUTC": "2019-12-18T17:13:10",
    "ModifiedBy": "7754ece9-d347-4be4-8a12-212da9be4e8e",
    "Telephone": "7704201792",
    "County": "COBB                                    ",
    "Directions": "LOC ON THE WEST SIDE OF CHEROKEE STREET NW BETWEEN JILES ROAD NW AND BOZEMAN LAKE ROAD NW.                                                                                                                                                                ",
    "FacilityTypeId": "90c31c62-1990-4fe2-a574-df7ebcfcc92b",
    "Latitude": -84.6010348,
    "Longitude": 34.0464932
  },
  {
    "FacilityId": "0b32feb2-9be2-439e-9ea1-032fca8bacf6",
    "Name": "NORTH IDAHO MEDICAL CARE CENTER - SANDPOINT",
    "AddressLine1": "30544 STATE HIGHWAY 200",
    "AddressLine2": null,
    "City": "PONDERAY",
    "State": "ID",
    "PostalCode": "83852",
    "ActivationDate": "2019-12-01T00:00:00",
    "DeactivationDate": null,
    "LastModifiedUTC": "2019-12-18T17:13:10",
    "ModifiedBy": "7754ece9-d347-4be4-8a12-212da9be4e8e",
    "Telephone": "2082639110",
    "County": "BONNER                                  ",
    "Directions": "LOC ON THE SW SIDE OF ID-200 .8 MI NE OF US-2                                                                                                                                                                                                             ",
    "FacilityTypeId": "90c31c62-1990-4fe2-a574-df7ebcfcc92b",
    "Latitude": -116.5411727,
    "Longitude": 48.2991513
  },
  {
    "FacilityId": "589cbb92-e66a-4a27-9d99-033a295da465",
    "Name": "INTERMOUNTAIN HEALTH CARE - MANTI CLINIC",
    "AddressLine1": "159 NORTH MAIN STREET",
    "AddressLine2": null,
    "City": "MANTI",
    "State": "UT",
    "PostalCode": "84642",
    "ActivationDate": "2019-12-01T00:00:00",
    "DeactivationDate": null,
    "LastModifiedUTC": "2019-12-18T17:13:10",
    "ModifiedBy": "7754ece9-d347-4be4-8a12-212da9be4e8e",
    "Telephone": "4358353344",
    "County": "SANPETE                                 ",
    "Directions": "LOCATED ON WEST SIDE OF N MAIN STREET BETWEEN W 200 NORTH ST AND W 100 NORTH ST.                                                                                                                                                                          ",
    "FacilityTypeId": "90c31c62-1990-4fe2-a574-df7ebcfcc92b",
    "Latitude": -111.6373767,
    "Longitude": 39.2677782
  },
  {
    "FacilityId": "60692e04-9a43-433c-b977-033e86d58737",
    "Name": "AMERICA'S URGENT CARE OF GROVE CITY",
    "AddressLine1": "2030 STRINGTOWN ROAD",
    "AddressLine2": null,
    "City": "GROVE CITY",
    "State": "OH",
    "PostalCode": "43123",
    "ActivationDate": "2019-12-01T00:00:00",
    "DeactivationDate": null,
    "LastModifiedUTC": "2019-12-18T17:13:10",
    "ModifiedBy": "7754ece9-d347-4be4-8a12-212da9be4e8e",
    "Telephone": "6148830160",
    "County": "FRANKLIN                                ",
    "Directions": "NORTH SIDE OF STRINGTOWN RD BETWEEN MCDOWELL RD AND GANTZ RD                                                                                                                                                                                              ",
    "FacilityTypeId": "90c31c62-1990-4fe2-a574-df7ebcfcc92b",
    "Latitude": -83.0573572,
    "Longitude": 39.8803031
  },
  {
    "FacilityId": "07cee00e-8200-4269-aac0-03431ea7f166",
    "Name": "ADVANCED URGENT CARE",
    "AddressLine1": "9975 SOUTH EASTERN AVENUE",
    "AddressLine2": "SUITE 110",
    "City": "LAS VEGAS",
    "State": "NV",
    "PostalCode": "89123",
    "ActivationDate": "2019-12-01T00:00:00",
    "DeactivationDate": null,
    "LastModifiedUTC": "2019-12-18T17:13:10",
    "ModifiedBy": "7754ece9-d347-4be4-8a12-212da9be4e8e",
    "Telephone": "7023612273",
    "County": "CLARK                                   ",
    "Directions": "LOCATED ON THE SOUTHWEST SIDE OF SOUTH EASTERN AVENUE BETWEEN SAINT ROSE PARKWAY AND JEFFREYS STREET.                                                                                                                                                     ",
    "FacilityTypeId": "90c31c62-1990-4fe2-a574-df7ebcfcc92b",
    "Latitude": -115.1153257,
    "Longitude": 36.0075381
  },
  {
    "FacilityId": "1d59c280-d9d7-4304-9821-035b8b52da3c",
    "Name": "MEDICAL CENTER OF CENTRAL GEORGIA - NORTH",
    "AddressLine1": "3400 RIVERSIDE DRIVE",
    "AddressLine2": null,
    "City": "MACON",
    "State": "GA",
    "PostalCode": "31210",
    "ActivationDate": "2019-12-01T00:00:00",
    "DeactivationDate": null,
    "LastModifiedUTC": "2019-12-18T17:13:10",
    "ModifiedBy": "7754ece9-d347-4be4-8a12-212da9be4e8e",
    "Telephone": "4784745600",
    "County": "BIBB                                    ",
    "Directions": "LOC ON THE SOUTHWEST SIDE OF RIVERSIDE DR, APPR .3 MILES NORTHWEST OF NORTHSIDE DR.                                                                                                                                                                       ",
    "FacilityTypeId": "90c31c62-1990-4fe2-a574-df7ebcfcc92b",
    "Latitude": -83.6804552,
    "Longitude": 32.8939198
  },
  {
    "FacilityId": "a0d56fdb-b242-4e62-b79b-03b7743d4b51",
    "Name": "DOCNOW AT UNISOURCE",
    "AddressLine1": "4600 INVESTMENT DRIVE",
    "AddressLine2": "SUITE 170",
    "City": "TROY",
    "State": "MI",
    "PostalCode": "48098",
    "ActivationDate": "2019-12-01T00:00:00",
    "DeactivationDate": null,
    "LastModifiedUTC": "2019-12-18T17:13:10",
    "ModifiedBy": "7754ece9-d347-4be4-8a12-212da9be4e8e",
    "Telephone": "2489529100",
    "County": "OAKLAND                                 ",
    "Directions": "ON THE WEST SIDE OF CROOKS RD BETWEEN W LONG LAKE RD AND INVESTMENT DRIVE                                                                                                                                                                                 ",
    "FacilityTypeId": "90c31c62-1990-4fe2-a574-df7ebcfcc92b",
    "Latitude": -83.1709535,
    "Longitude": 42.5892532
  },
  {
    "FacilityId": "0b5e9edb-7be4-4c47-a261-03bf410a7377",
    "Name": "CARE NOW - LAKE WORTH",
    "AddressLine1": "3520 NORTHWEST CENTRE DRIVE",
    "AddressLine2": null,
    "City": "FORT WORTH",
    "State": "TX",
    "PostalCode": "76135",
    "ActivationDate": "2019-12-01T00:00:00",
    "DeactivationDate": null,
    "LastModifiedUTC": "2019-12-18T17:13:10",
    "ModifiedBy": "7754ece9-d347-4be4-8a12-212da9be4e8e",
    "Telephone": "8173752100",
    "County": "TARRANT                                 ",
    "Directions": "ON THE SE SIDE OF NW CENTRE DRIVE BETWEEN .2 MILES AND .3 MILES NE OF QUEBEC ST                                                                                                                                                                           ",
    "FacilityTypeId": "90c31c62-1990-4fe2-a574-df7ebcfcc92b",
    "Latitude": -97.4264883,
    "Longitude": 32.8080704
  },
  {
    "FacilityId": "df2b00ec-9bbc-4995-aee2-03cdbd557017",
    "Name": "AMBIENT CARE",
    "AddressLine1": "24459 SUSSEX HIGHWAY",
    "AddressLine2": null,
    "City": "SEAFORD",
    "State": "DE",
    "PostalCode": "19973",
    "ActivationDate": "2019-12-01T00:00:00",
    "DeactivationDate": null,
    "LastModifiedUTC": "2019-12-18T17:13:10",
    "ModifiedBy": "7754ece9-d347-4be4-8a12-212da9be4e8e",
    "Telephone": "3026293099",
    "County": "SUSSEX                                  ",
    "Directions": "LOCATED ON THE E SIDE OF SUSSEX HWY ABOUT .1 MI S OF MIDDLEFORD RD.                                                                                                                                                                                       ",
    "FacilityTypeId": "90c31c62-1990-4fe2-a574-df7ebcfcc92b",
    "Latitude": -75.5934955,
    "Longitude": 38.6468425
  },
  {
    "FacilityId": "943dff4b-bb2a-4471-9de2-03db27da0390",
    "Name": "CARTERSVILLE PEDIATRIC ASSOCIATES",
    "AddressLine1": "970 JOE FRANK HARRIS PARKWAY",
    "AddressLine2": "SUITE 350",
    "City": "CARTERSVILLE",
    "State": "GA",
    "PostalCode": "30120",
    "ActivationDate": "2019-12-01T00:00:00",
    "DeactivationDate": null,
    "LastModifiedUTC": "2019-12-18T17:13:10",
    "ModifiedBy": "7754ece9-d347-4be4-8a12-212da9be4e8e",
    "Telephone": "7703863011",
    "County": "BARTOW                                  ",
    "Directions": "LOC ON THE SOUTH SIDE OF GA-20, APPR .2 MILES WEST OF MARKET PLACE BLVD.                                                                                                                                                                                  ",
    "FacilityTypeId": "90c31c62-1990-4fe2-a574-df7ebcfcc92b",
    "Latitude": -84.7931884,
    "Longitude": 34.2020715
  },
  {
    "FacilityId": "3b34c803-939f-4a0b-b102-04065ca4b23f",
    "Name": "NORTH LEXINGTON URGENT TREATMENT CLINIC - HAMBURG",
    "AddressLine1": "2424 SIR BARTON WAY",
    "AddressLine2": "SUITE 175",
    "City": "LEXINGTON",
    "State": "KY",
    "PostalCode": "40509",
    "ActivationDate": "2019-12-01T00:00:00",
    "DeactivationDate": null,
    "LastModifiedUTC": "2019-12-18T17:13:10",
    "ModifiedBy": "7754ece9-d347-4be4-8a12-212da9be4e8e",
    "Telephone": "8592334882",
    "County": "FAYETTE                                 ",
    "Directions": "LOCATED ON THE EAST SIDE OF SIR BARTON WAY APPROX. 0.10 MILE NORTH OF OLD ROSEBUD RD                                                                                                                                                                      ",
    "FacilityTypeId": "90c31c62-1990-4fe2-a574-df7ebcfcc92b",
    "Latitude": -84.4199948,
    "Longitude": 38.0298362
  },
  {
    "FacilityId": "dcdd18b7-d029-4b78-90b1-040841aa0217",
    "Name": "SHERWOOD URGENT CARE - HEBER",
    "AddressLine1": "6134 HEBER SPRINGS ROAD WEST",
    "AddressLine2": null,
    "City": "QUITMAN",
    "State": "AR",
    "PostalCode": "72131",
    "ActivationDate": "2019-12-01T00:00:00",
    "DeactivationDate": null,
    "LastModifiedUTC": "2019-12-18T17:13:10",
    "ModifiedBy": "7754ece9-d347-4be4-8a12-212da9be4e8e",
    "Telephone": "5015893015",
    "County": "CLEBURNE                                ",
    "Directions": "ON THE WEST SIDE OF HEBER SPRINGS RD WEST, .28 MILES SOUTH OF DAMASCUS RD.                                                                                                                                                                                ",
    "FacilityTypeId": "90c31c62-1990-4fe2-a574-df7ebcfcc92b",
    "Latitude": -92.2238263,
    "Longitude": 35.377364
  },
  {
    "FacilityId": "8af6bb93-a9e5-4357-a150-042074fbe80e",
    "Name": "MIAMI BEACH COMMUNITY HEALTH CENTER",
    "AddressLine1": "710 ALTON ROAD",
    "AddressLine2": null,
    "City": "MIAMI BEACH",
    "State": "FL",
    "PostalCode": "33139",
    "ActivationDate": "2019-12-01T00:00:00",
    "DeactivationDate": null,
    "LastModifiedUTC": "2019-12-18T17:13:10",
    "ModifiedBy": "7754ece9-d347-4be4-8a12-212da9be4e8e",
    "Telephone": "3055388835",
    "County": "MIAMI-DADE                              ",
    "Directions": "ENTITY IS LOCATED ON THE WEST SIDE OF ALTON ROAD BETWEEN 8TH STREET AND 7TH STREET                                                                                                                                                                        ",
    "FacilityTypeId": "90c31c62-1990-4fe2-a574-df7ebcfcc92b",
    "Latitude": -80.1412044,
    "Longitude": 25.7773932
  },
  {
    "FacilityId": "5f02f743-d63c-44af-8be2-0434eefc3fb7",
    "Name": "GEORGETOWN URGENT CARE",
    "AddressLine1": "111 OSBOURNE WAY",
    "AddressLine2": "SUITE 101",
    "City": "GEORGETOWN",
    "State": "KY",
    "PostalCode": "40324",
    "ActivationDate": "2019-12-01T00:00:00",
    "DeactivationDate": null,
    "LastModifiedUTC": "2019-12-18T17:13:10",
    "ModifiedBy": "7754ece9-d347-4be4-8a12-212da9be4e8e",
    "Telephone": "5025700007",
    "County": "SCOTT                                   ",
    "Directions": "LOCATED ON THE SOUTHWEST CORNER OF LAWSON DR AND OSBOURNE WAY                                                                                                                                                                                             ",
    "FacilityTypeId": "90c31c62-1990-4fe2-a574-df7ebcfcc92b",
    "Latitude": -84.5387158,
    "Longitude": 38.2305013
  },
  {
    "FacilityId": "034e6099-b76a-4024-8ad4-043a21b487c8",
    "Name": "AMMON MEDICAL AND URGENT CARE",
    "AddressLine1": "3456 EAST 17TH STREET",
    "AddressLine2": "SUITE 125",
    "City": "IDAHO FALLS",
    "State": "ID",
    "PostalCode": "83406",
    "ActivationDate": "2019-12-01T00:00:00",
    "DeactivationDate": null,
    "LastModifiedUTC": "2019-12-18T17:13:10",
    "ModifiedBy": "7754ece9-d347-4be4-8a12-212da9be4e8e",
    "Telephone": "2085292828",
    "County": "BONNEVILLE                              ",
    "Directions": ".07 MILES WEST OF SOUTH AMMON ROAD ON THE SOUTH SIDE OF EAST 17TH STREET                                                                                                                                                                                  ",
    "FacilityTypeId": "90c31c62-1990-4fe2-a574-df7ebcfcc92b",
    "Latitude": -111.9657267,
    "Longitude": 43.4815986
  },
  {
    "FacilityId": "b05c2410-b59e-44f9-8534-0455c1a228c9",
    "Name": "SAINT ANTHONYS MEDICAL CENTER - FENTON URGENT CARE",
    "AddressLine1": "714 GRAVOIS ROAD",
    "AddressLine2": null,
    "City": "FENTON",
    "State": "MO",
    "PostalCode": "63026",
    "ActivationDate": "2019-12-01T00:00:00",
    "DeactivationDate": null,
    "LastModifiedUTC": "2019-12-18T17:13:10",
    "ModifiedBy": "7754ece9-d347-4be4-8a12-212da9be4e8e",
    "Telephone": "6363266100",
    "County": "ST LOUIS                                ",
    "Directions": "LOCATED ON THE SW CORNER OF GRAVOIS RD AND MO-141.                                                                                                                                                                                                        ",
    "FacilityTypeId": "90c31c62-1990-4fe2-a574-df7ebcfcc92b",
    "Latitude": -90.4458013,
    "Longitude": 38.5113174
  },
  {
    "FacilityId": "680cf370-ab06-4a27-9f1e-0461a1f6d5a5",
    "Name": "FLORIDA HOSPITAL CENTRA CARE - AZALEA PARK",
    "AddressLine1": "509 SOUTH SEMORAN BOULEVARD",
    "AddressLine2": null,
    "City": "ORLANDO",
    "State": "FL",
    "PostalCode": "32807",
    "ActivationDate": "2019-12-01T00:00:00",
    "DeactivationDate": null,
    "LastModifiedUTC": "2019-12-18T17:13:10",
    "ModifiedBy": "7754ece9-d347-4be4-8a12-212da9be4e8e",
    "Telephone": "4072770550",
    "County": "ORANGE                                  ",
    "Directions": "LOCATED ON THE EAST SIDE OF S SEMORAN BLVD BETWEEN BEAU BARTON PL AND KISLIN PL                                                                                                                                                                           ",
    "FacilityTypeId": "90c31c62-1990-4fe2-a574-df7ebcfcc92b",
    "Latitude": -81.3101246,
    "Longitude": 28.5366643
  },
  {
    "FacilityId": "9da823f2-fedf-400e-8822-04638c07955a",
    "Name": "CONCENTRA MEDICAL CENTER - NEW HAVEN",
    "AddressLine1": "370 JAMES STREET",
    "AddressLine2": null,
    "City": "NEW HAVEN",
    "State": "CT",
    "PostalCode": "6513",
    "ActivationDate": "2019-12-01T00:00:00",
    "DeactivationDate": null,
    "LastModifiedUTC": "2019-12-18T17:13:10",
    "ModifiedBy": "7754ece9-d347-4be4-8a12-212da9be4e8e",
    "Telephone": "2035030482",
    "County": "NEW HAVEN                               ",
    "Directions": "LOCATED ON THE WEST SIDE OF JAMES ST BETWEEN JOHN W MURPHY DR AND HUMPHREY ST                                                                                                                                                                             ",
    "FacilityTypeId": "90c31c62-1990-4fe2-a574-df7ebcfcc92b",
    "Latitude": -72.9042426,
    "Longitude": 41.313292
  },
  {
    "FacilityId": "bf6056a6-b59f-41a1-9341-0484fb233692",
    "Name": "THE DOCTOR IS IN - CLINTON",
    "AddressLine1": "59 OLD ROUTE 22",
    "AddressLine2": null,
    "City": "CLINTON",
    "State": "NJ",
    "PostalCode": "8809",
    "ActivationDate": "2019-12-01T00:00:00",
    "DeactivationDate": null,
    "LastModifiedUTC": "2019-12-18T17:13:10",
    "ModifiedBy": "7754ece9-d347-4be4-8a12-212da9be4e8e",
    "Telephone": "9087306363",
    "County": "HUNTERDON                               ",
    "Directions": "APPROX .32 MILES EAST FROM THE INTERSECTION OF NEW ST ON OLD RT 22. LOCATED ON THE NORTH SIDE OF RT 22.                                                                                                                                                   ",
    "FacilityTypeId": "90c31c62-1990-4fe2-a574-df7ebcfcc92b",
    "Latitude": -74.9024538,
    "Longitude": 40.6380504
  },
  {
    "FacilityId": "175ea2bd-c259-4097-b906-048b701843d1",
    "Name": "FAMILY DOCTORS",
    "AddressLine1": "250 PARADISE ROAD",
    "AddressLine2": null,
    "City": "SWAMPSCOTT",
    "State": "MA",
    "PostalCode": "1907",
    "ActivationDate": "2019-12-01T00:00:00",
    "DeactivationDate": null,
    "LastModifiedUTC": "2019-12-18T17:13:10",
    "ModifiedBy": "7754ece9-d347-4be4-8a12-212da9be4e8e",
    "Telephone": "7815964150",
    "County": "ESSEX                                   ",
    "Directions": "ON THE NORTH SIDE OF PARADISE RD BETWEEN FRANKLIN AVE AND OAKLEDGE RD                                                                                                                                                                                     ",
    "FacilityTypeId": "90c31c62-1990-4fe2-a574-df7ebcfcc92b",
    "Latitude": -70.9125322,
    "Longitude": 42.47636
  },
  {
    "FacilityId": "103aec7f-727a-4050-aea8-048c51a0843b",
    "Name": "NOVA URGENT MEDICAL CARE",
    "AddressLine1": "861 BERKSHIRE ROAD",
    "AddressLine2": null,
    "City": "SMITHFIELD",
    "State": "NC",
    "PostalCode": "27577",
    "ActivationDate": "2019-12-01T00:00:00",
    "DeactivationDate": null,
    "LastModifiedUTC": "2019-12-18T17:13:10",
    "ModifiedBy": "7754ece9-d347-4be4-8a12-212da9be4e8e",
    "Telephone": "9199340985",
    "County": "JOHNSTON                                ",
    "Directions": "ON THE N SIDE OF BERKSHIRE RD BETWEEN HOSPITAL RD AND W EDGERTON ST.                                                                                                                                                                                      ",
    "FacilityTypeId": "90c31c62-1990-4fe2-a574-df7ebcfcc92b",
    "Latitude": -78.3288131,
    "Longitude": 35.5176015
  },
  {
    "FacilityId": "f0e0a0c9-86b3-4945-aa07-049600666fda",
    "Name": "PARK MED URGENT CARE CENTER - KINGSTON PIKE",
    "AddressLine1": "8350 KINGSTON PIKE",
    "AddressLine2": null,
    "City": "KNOXVILLE",
    "State": "TN",
    "PostalCode": "37919",
    "ActivationDate": "2019-12-01T00:00:00",
    "DeactivationDate": null,
    "LastModifiedUTC": "2019-12-18T17:13:10",
    "ModifiedBy": "7754ece9-d347-4be4-8a12-212da9be4e8e",
    "Telephone": "8656901801",
    "County": "KNOX                                    ",
    "Directions": "LOC ON THE SOUTHEAST SIDE OF KINGSTON PIKE, APPR .1 MILES NORTHEAST OF GALLAHER VIEW RD NW.                                                                                                                                                               ",
    "FacilityTypeId": "90c31c62-1990-4fe2-a574-df7ebcfcc92b",
    "Latitude": -84.0566771,
    "Longitude": 35.9232941
  },
  {
    "FacilityId": "12c989d4-478d-48e7-acf0-049746d2a301",
    "Name": "EDMONTON PRIMARY CARE",
    "AddressLine1": "903 WEST STOCKTON STREET",
    "AddressLine2": null,
    "City": "EDMONTON",
    "State": "KY",
    "PostalCode": "42129",
    "ActivationDate": "2019-12-01T00:00:00",
    "DeactivationDate": null,
    "LastModifiedUTC": "2019-12-18T17:13:10",
    "ModifiedBy": "7754ece9-d347-4be4-8a12-212da9be4e8e",
    "Telephone": "2704325782",
    "County": "METCALFE                                ",
    "Directions": "SOUTHWEST SIDE OF E KY 80 BETWEEN JAMES ST AND LOVE ST.                                                                                                                                                                                                   ",
    "FacilityTypeId": "90c31c62-1990-4fe2-a574-df7ebcfcc92b",
    "Latitude": -85.6314294,
    "Longitude": 36.9852305
  },
  {
    "FacilityId": "546f037b-6363-4aa3-a50b-04c648232cd9",
    "Name": "HOLZER CLINIC - JACKSON",
    "AddressLine1": "280 PATTONSVILLE ROAD",
    "AddressLine2": null,
    "City": "JACKSON",
    "State": "OH",
    "PostalCode": "45640",
    "ActivationDate": "2019-12-01T00:00:00",
    "DeactivationDate": null,
    "LastModifiedUTC": "2019-12-18T17:13:10",
    "ModifiedBy": "7754ece9-d347-4be4-8a12-212da9be4e8e",
    "Telephone": "7403958805",
    "County": "JACKSON                                 ",
    "Directions": "S SIDE OF E BROADWAY ST ABOUT .1 MI W OF KESSINGER SCHOOL RD.                                                                                                                                                                                             ",
    "FacilityTypeId": "90c31c62-1990-4fe2-a574-df7ebcfcc92b",
    "Latitude": -82.6155319,
    "Longitude": 39.0509212
  },
  {
    "FacilityId": "97e495b2-4cf7-40aa-b2df-04cd1e4aff46",
    "Name": "CONCENTRA URGENT CARE - SPARKS",
    "AddressLine1": "255 GLENDALE AVENUE",
    "AddressLine2": "SUITE 12",
    "City": "SPARKS",
    "State": "NV",
    "PostalCode": "89431",
    "ActivationDate": "2019-12-01T00:00:00",
    "DeactivationDate": null,
    "LastModifiedUTC": "2019-12-18T17:13:10",
    "ModifiedBy": "7754ece9-d347-4be4-8a12-212da9be4e8e",
    "Telephone": "7753568181",
    "County": "WASHOE                                  ",
    "Directions": "ON THE S SIDE OF GLENDALE AVE LESS THEN .1 MI E OF LINDA WAY                                                                                                                                                                                              ",
    "FacilityTypeId": "90c31c62-1990-4fe2-a574-df7ebcfcc92b",
    "Latitude": -119.7461664,
    "Longitude": 39.5269474
  },
  {
    "FacilityId": "10508b6a-84c5-4fa2-9e8e-04e63af3ab74",
    "Name": "PENN - VIEW MEDICAL CLINIC",
    "AddressLine1": "12611 PENNSYLVANIA ROAD",
    "AddressLine2": null,
    "City": "RIVERVIEW",
    "State": "MI",
    "PostalCode": "48193",
    "ActivationDate": "2019-12-01T00:00:00",
    "DeactivationDate": null,
    "LastModifiedUTC": "2019-12-18T17:13:10",
    "ModifiedBy": "7754ece9-d347-4be4-8a12-212da9be4e8e",
    "Telephone": "7342855280",
    "County": "WAYNE                                   ",
    "Directions": "SOUTH SIDE OF PENNSYLVANIA RD. BETWEEN QUARRY RD AND 23RD ST                                                                                                                                                                                              ",
    "FacilityTypeId": "90c31c62-1990-4fe2-a574-df7ebcfcc92b",
    "Latitude": -83.1785895,
    "Longitude": 42.1847124
  },
  {
    "FacilityId": "b0d157f0-a579-454d-bfa6-04ec0e3eb262",
    "Name": "BRAINERD MEDICAL CENTER - URGENT CARE",
    "AddressLine1": "2024 SOUTH 6TH STREET",
    "AddressLine2": null,
    "City": "BRAINERD",
    "State": "MN",
    "PostalCode": "56401",
    "ActivationDate": "2019-12-01T00:00:00",
    "DeactivationDate": null,
    "LastModifiedUTC": "2019-12-18T17:13:10",
    "ModifiedBy": "7754ece9-d347-4be4-8a12-212da9be4e8e",
    "Telephone": "2188555478",
    "County": "CROW WING                               ",
    "Directions": "LOCATED APPROXIMATELY .16 MILES NORTH OF BUFFALO HILLS LN E ON THE WEST SIDE OF S 6TH ST.                                                                                                                                                                 ",
    "FacilityTypeId": "90c31c62-1990-4fe2-a574-df7ebcfcc92b",
    "Latitude": -94.2011553,
    "Longitude": 46.3331
  },
  {
    "FacilityId": "96b03324-9671-432d-a4a3-0501d5522e35",
    "Name": "MCALESTER COMMUNITY CARE",
    "AddressLine1": "727 EAST WYANDOTTE AVENUE",
    "AddressLine2": null,
    "City": "MCALESTER",
    "State": "OK",
    "PostalCode": "74501",
    "ActivationDate": "2019-12-01T00:00:00",
    "DeactivationDate": null,
    "LastModifiedUTC": "2019-12-18T17:13:10",
    "ModifiedBy": "7754ece9-d347-4be4-8a12-212da9be4e8e",
    "Telephone": "9184216960",
    "County": "PITTSBURG                               ",
    "Directions": "ON THE NE CORNER OF E WYANDOTTE AVE AND S 7TH ST.                                                                                                                                                                                                         ",
    "FacilityTypeId": "90c31c62-1990-4fe2-a574-df7ebcfcc92b",
    "Latitude": -95.7614407,
    "Longitude": 34.927199
  },
  {
    "FacilityId": "a1384ddb-04ee-40fe-bd83-0517fba8ca66",
    "Name": "SAINT JOHN'S URGENT CARE - BRANSON-248",
    "AddressLine1": "1065 STATE HIGHWAY 248",
    "AddressLine2": null,
    "City": "BRANSON",
    "State": "MO",
    "PostalCode": "65616",
    "ActivationDate": "2019-12-01T00:00:00",
    "DeactivationDate": null,
    "LastModifiedUTC": "2019-12-18T17:13:10",
    "ModifiedBy": "7754ece9-d347-4be4-8a12-212da9be4e8e",
    "Telephone": "4173375000",
    "County": "TANEY                                   ",
    "Directions": "LOCATED ON THE SOUTH SIDE OF STATE HIGHWAY 248, .16 MILES EAST OF JAMES F EPPS ROAD                                                                                                                                                                       ",
    "FacilityTypeId": "90c31c62-1990-4fe2-a574-df7ebcfcc92b",
    "Latitude": -93.236709,
    "Longitude": 36.6628634
  },
  {
    "FacilityId": "b8e0c013-25d6-41ba-94b9-051afb55178e",
    "Name": "FLOYD URGENT CARE IN SUMMERVILLE",
    "AddressLine1": "11766 UNITED STATES HIGHWAY 27",
    "AddressLine2": null,
    "City": "SUMMERVILLE",
    "State": "GA",
    "PostalCode": "30747",
    "ActivationDate": "2019-12-01T00:00:00",
    "DeactivationDate": null,
    "LastModifiedUTC": "2019-12-18T17:13:10",
    "ModifiedBy": "7754ece9-d347-4be4-8a12-212da9be4e8e",
    "Telephone": "7068571010",
    "County": "CHATTOOGA                               ",
    "Directions": "ON THE S CORNER OF THE INTERSECTION OF HIGHWAY 27 AND WOODHAVEN DR                                                                                                                                                                                        ",
    "FacilityTypeId": "90c31c62-1990-4fe2-a574-df7ebcfcc92b",
    "Latitude": -85.3306562,
    "Longitude": 34.5000331
  },
  {
    "FacilityId": "775e6bb8-9d6b-4006-a1db-0528258ab888",
    "Name": "REX EXPRESS CARE OF WAKEFIELD",
    "AddressLine1": "14501 NEW FALLS OF NEUSE ROAD",
    "AddressLine2": null,
    "City": "RALEIGH",
    "State": "NC",
    "PostalCode": "27614",
    "ActivationDate": "2019-12-01T00:00:00",
    "DeactivationDate": null,
    "LastModifiedUTC": "2019-12-18T17:13:10",
    "ModifiedBy": "7754ece9-d347-4be4-8a12-212da9be4e8e",
    "Telephone": "9195540213",
    "County": "WAKE                                    ",
    "Directions": "LOCATED ON THE SOUTHEAST CORNER OF THE INTERSECTION OF COMMON OAKS DR AND FOREST PINES DR.                                                                                                                                                                ",
    "FacilityTypeId": "90c31c62-1990-4fe2-a574-df7ebcfcc92b",
    "Latitude": -78.5443786,
    "Longitude": 35.9482871
  },
  {
    "FacilityId": "bc09f2c0-99d8-4a2a-8574-053309b2c406",
    "Name": "LAKESIDE FAMILY AND URGENT CARE - CORNELIUS",
    "AddressLine1": "19485 OLD JETTON ROAD",
    "AddressLine2": null,
    "City": "CORNELIUS",
    "State": "NC",
    "PostalCode": "28031",
    "ActivationDate": "2019-12-01T00:00:00",
    "DeactivationDate": null,
    "LastModifiedUTC": "2019-12-18T17:13:10",
    "ModifiedBy": "7754ece9-d347-4be4-8a12-212da9be4e8e",
    "Telephone": "7043841775",
    "County": "MECKLENBURG                             ",
    "Directions": "LOCATED ON THE NORTHWEST SIDE OF OLD JETTON ROAD, BETWEEN NORTH COVE ROAD AND WEST CATAWBA AVENUE.                                                                                                                                                        ",
    "FacilityTypeId": "90c31c62-1990-4fe2-a574-df7ebcfcc92b",
    "Latitude": -80.892514,
    "Longitude": 35.4798041
  },
  {
    "FacilityId": "c97a16d3-35e8-45bb-9db8-0533c07a6f7f",
    "Name": "MEDEXPRESS URGENT CARE - MONROEVILLE",
    "AddressLine1": "3433 WILLIAM PENN HIGHWAY",
    "AddressLine2": null,
    "City": "PITTSBURGH",
    "State": "PA",
    "PostalCode": "15235",
    "ActivationDate": "2019-12-01T00:00:00",
    "DeactivationDate": null,
    "LastModifiedUTC": "2019-12-18T17:13:10",
    "ModifiedBy": "7754ece9-d347-4be4-8a12-212da9be4e8e",
    "Telephone": "4128253627",
    "County": "ALLEGHENY                               ",
    "Directions": "LOC ON THE SOUTHWEST CORNER OF WILLIAM PENN HIGHWAY, AND PENN CENTER BLVD.                                                                                                                                                                                ",
    "FacilityTypeId": "90c31c62-1990-4fe2-a574-df7ebcfcc92b",
    "Latitude": -79.8128876,
    "Longitude": 40.4290907
  },
  {
    "FacilityId": "9e83f4a5-3342-434a-957f-053942ff65d8",
    "Name": "MEDISERVE WALK IN CLINIC",
    "AddressLine1": "1188 NORTH SALEM ROAD",
    "AddressLine2": "SUITE 6",
    "City": "FAYETTEVILLE",
    "State": "AR",
    "PostalCode": "72704",
    "ActivationDate": "2019-12-01T00:00:00",
    "DeactivationDate": null,
    "LastModifiedUTC": "2019-12-18T17:13:10",
    "ModifiedBy": "7754ece9-d347-4be4-8a12-212da9be4e8e",
    "Telephone": "4794420006",
    "County": "WASHINGTON                              ",
    "Directions": "LOCATED ON THE NORTH SIDE OF W WEDINGTON DR BETWEEN N SALEM RD AND N COLORADO DR                                                                                                                                                                          ",
    "FacilityTypeId": "90c31c62-1990-4fe2-a574-df7ebcfcc92b",
    "Latitude": -94.20757,
    "Longitude": 36.079424
  }
]